CODICE,DENOMINAZIONE,INDIRIZZO,COMUNE,COD_ISTAT,LON,LAT,LAT_LON,SR_GEO,QUOTA,OPERATORE,TIPO_IMPIANTO,STATO_IMPIANTO,FASE_RICHIESTA,TECNOLOGIE_UTILIZZATE
FL05,BERTINORO,"VIA MONTONE, SNC",BERTINORO,040003,12.1588626788,44.1624957655,12.1588626788 44.1624957655,4326                            ,36,TIM,STAZIONE RADIO BASE,NON ATTIVO,CONCLUSA,GSM900 - LTE800 - LTE1800 - LTE2600 - UMTS900 - UMTS2100
FO045,VIA CHIAVICHE ,"VIA SANT'ORSOLA, 6",CESENA,040007,12.279389,44.164016,12.279389 44.164016,4326                            ,"21,1",WIND3,STAZIONE RADIO BASE,ATTIVO,ATTIVA,GSM900 - LTE800 - LTE1800 - LTE2100 - LTE2600 - UMTS900 - UMTS2100
FL74,CESENA VIA SAVIO ,"VIA CHIANCIANO,",CESENA,040007,12.208605,44.128015,12.208605 44.128015,4326                            ,44,TIM,STAZIONE RADIO BASE,ATTIVO,ATTIVA,GSM900 - GSM1800 - LTE800 - LTE1800 - UMTS2100
FC5227,MONTALETTO ,VIA CONFINE - LOCALITA` MONTALETTO DI CERVIA,CESENA,040007,12.327464,44.203737,12.327464 44.203737,4326                            ,4,VODAFONE,STAZIONE RADIO BASE,ATTIVO,ATTIVA,GSM900 - LTE1800 - UMTS2100
FO057,A14 MACERONE ,"VIA VANZIE, 881",CESENA,040007,12.322379,44.150447,12.322379 44.150447,4326                            ,16,WIND3,STAZIONE RADIO BASE,ATTIVO,ATTIVA,GSM900 - GSM1800 - LTE800 - LTE1800 - UMTS900 - UMTS2100
FO041,STADIO,VIA VENETO C/O RFI,CESENA,040007,12.264912,44.142259,12.264912 44.142259,4326                            ,29,WIND3,STAZIONE RADIO BASE,ATTIVO,ATTIVA,GSM900 - GSM1800 - LTE800 - LTE1800 - LTE2600 - UMTS900 - UMTS2100
FO3C,CESENA PISTOIA ,"VIA SAN MINIATO, 246",CESENA,040007,12.220631,44.135021,12.220631 44.135021,4326                            ,39,TIM,STAZIONE RADIO BASE,ATTIVO,ATTIVA,GSM900 - GSM1800 - LTE800 - LTE1800 - UMTS2100
FO99,VALVERDE ,"VIA BERNINI,17",CESENATICO,040008,12.423059,44.178949,12.423059 44.178949,4326                            ,"1,5",TIM,STAZIONE RADIO BASE,ATTIVO,ATTIVA,GSM900 - LTE800 - LTE1800 - LTE2600 - UMTS2100
FO010,SAVIGNANO SUL RUBICONE ,"VIA DELLA REPUBBLICA, 42",SAVIGNANO SUL RUBICONE,040045,12.408222,44.097807,12.408222 44.097807,4326                            ,26,WIND3,STAZIONE RADIO BASE,ATTIVO,ATTIVA,GSM900 - GSM1800 - LTE800 - LTE1800 - LTE2600 - UMTS900 - UMTS2100
FO003,ENEL STADIO ,"VIA PIANCASTELLI, 4",FORLI' ,040012,12.060583,44.213274,12.060583 44.213274,4326                            ,25,WIND3,STAZIONE RADIO BASE,ATTIVO,ATTIVA,GSM900 - LTE800 - LTE1800 - LTE2100 - LTE2600 - UMTS900 - UMTS2100
FO005,VIALE RISORGIMENTO ,"VIALE RISORGIMENTO, 250 - FORLI",FORLI' ,040012,12.032265,44.198303,12.032265 44.198303,4326                            ,39,WIND3,STAZIONE RADIO BASE,ATTIVO,ATTIVA,GSM900 - LTE800 - LTE1800 - LTE2100 - LTE2600 - UMTS900 - UMTS2100
FL41,SAN ZENO,"VIA SAN ZENO, LOCALITA PODERE SALAMELLO",GALEATA,040014,11.8781577495,44.011104831,11.8781577495 44.011104831,4326                            ,"518,1",TIM,STAZIONE RADIO BASE,ATTIVO,ATTIVA,GSM900 - LTE800 - LTE1800 - UMTS900 - UMTS2100
FO021,MODIGLIANA,"VIA DELLA COSTA, 7 - MODIGLIANA",MODIGLIANA,040022,11.791669,44.163361,11.791669 44.163361,4326                            ,244,WIND3,STAZIONE RADIO BASE,ATTIVO,ATTIVA,GSM900 - GSM1800 - LTE800 - LTE1800 - UMTS900 - UMTS2100
FL65,PORTICO DI ROMAGNA ,"PODERE  BOTTAQUARA,14",PORTICO E SAN BENEDETTO,040031,11.766248,44.014171,11.766248 44.014171,4326                            ,471,TIM,STAZIONE RADIO BASE,ATTIVO,ATTIVA,GSM900 - LTE800 - UMTS900 - UMTS2100
FO14,SPORTILIA,STRADA VICINALE SPINELLO,SANTA SOFIA,040043,11.9892848356,43.9270877606,11.9892848356 43.9270877606,4326                            ,"913,5",TIM,STAZIONE RADIO BASE,ATTIVO,ATTIVA,GSM900 - LTE800 - UMTS900 - UMTS2100
FL1C,CORNIOLO,STRADA COMUNALE CERRETO CERRETINO,SANTA SOFIA,040043,11.7957945125,43.9095109355,11.7957945125 43.9095109355,4326                            ,655,TIM,STAZIONE RADIO BASE,ATTIVO,ATTIVA,GSM900 - UMTS2100
MO95,MO LARGO SAN FRANCESCO PC,"VIA CANAL CHIARO,159",MODENA,036023,10.9213747669,44.6430430247,10.9213747669 44.6430430247,4326                            ,38,TIM,STAZIONE RADIO BASE,ATTIVO,ATTIVA,LTE2600 - UMTS2100
MO5942-A,PANZANO                                 ,"VIA MACMANI,2",CAMPOGALLIANO,036003,10.8456943179,44.7165339134,10.8456943179 44.7165339134,4326                            ,32,VODAFONE,STAZIONE RADIO BASE,ATTIVO,ATTIVA,
MO2801B,CAMPOGALLIANO BILANCIAI,PIAZZALE DELLE NAZIONI C/O DOGANA,CAMPOGALLIANO,036003,10.8574071964,44.6868441324,10.8574071964 44.6868441324,4326                            ,39,VODAFONE,STAZIONE RADIO BASE,ATTIVO,ATTIVA,GSM900 - LTE800 - LTE1800 - LTE2100 - UMTS900 - UMTS2100
MO2453-B,CASTELVETRO,VIA MIGLIORARA,CASTELVETRO DI MODENA,036008,10.9525538224,44.4951201916,10.9525538224 44.4951201916,4326                            ,165,VODAFONE,STAZIONE RADIO BASE,ATTIVO,ATTIVA,GSM900 - LTE800 - LTE1800 - UMTS900 - UMTS2100
MO2450-C,FORMIGINE,TERR. ADIACENTE ALLA VIA GIARDINI/. SS.GUASTALLA,FORMIGINE,036015,10.85555,44.586506,10.85555 44.586506,4326                            ,69,VODAFONE,STAZIONE RADIO BASE,ATTIVO,ATTIVA,GSM900 - GSM1800 - LTE800 - LTE1800 - UMTS900 - UMTS2100
MO61,FORMIGINE SUD/OVEST,"VIA FONDACCIA LOCALITA' PONTE FOSSA,SNC",FORMIGINE,036015,10.8219478283,44.5688573199,10.8219478283 44.5688573199,4326                            ,91,TIM,STAZIONE RADIO BASE,NON ATTIVO,CONCLUSA,
MO76,MAGRETA,"VIA GAZZUOLI LOCALITA' MAGRETA,S.N.C.",FORMIGINE,036015,10.807831612,44.6094927751,10.807831612 44.6094927751,4326                            ,65,TIM,STAZIONE RADIO BASE,NON ATTIVO,CONCLUSA,
MO2739,FRASSINORO,"SITO RAI SP32 DI MODENA, 2KM CIRCA A SUD DI FRASSI",FRASSINORO,036016,10.5431279848,44.2766965375,10.5431279848 44.2766965375,4326                            ,1182,VODAFONE,STAZIONE RADIO BASE,ATTIVO,ATTIVA,GSM900
MD17,MO VIA DELLA VITE,VIA TRE RE,MODENA,036023,10.9236991448,44.6435529948,10.9236991448 44.6435529948,4326                            ,35,TIM,STAZIONE RADIO BASE,ATTIVO,ATTIVA,LTE1800 - LTE2100 - UMTS2100
MO091,VIA DALLA CHIESA,STRADA CONTRADA 391,MODENA,036023,10.932723,44.612391,10.932723 44.612391,4326                            ,38,WIND3,STAZIONE RADIO BASE,NON ATTIVO,CONCLUSA,
MO41125_005,,VIA PANNI,MODENA,036023,10.902643,44.62655,10.902643 44.62655,4326                            ,40,ILIAD,STAZIONE RADIO BASE,ATTIVO,ATTIVA,
MO0123-A,TABACCHI,VIA PIAZZA,MODENA,036023,10.9058512957,44.6541599066,10.9058512957 44.6541599066,4326                            ,36,VODAFONE,STAZIONE RADIO BASE,ATTIVO,ATTIVA,GSM1800 - LTE800 - LTE1800 - LTE2100
MO2848-A,ALTA,"VIA CERVINO, 31",MODENA,036023,10.9472628009,44.6570075974,10.9472628009 44.6570075974,4326                            ,31,VODAFONE,STAZIONE RADIO BASE,ATTIVO,ATTIVA,UMTS2100
MO56,MO NEWTON,"VIA CESARE DELLA CHIESA, 278",MODENA,036023,10.894532,44.647729,10.894532 44.647729,4326                            ,"36,3",TIM,STAZIONE RADIO BASE,ATTIVO,ATTIVA,GSM900 - GSM1800 - LTE800 - LTE1800 - LTE2100 - UMTS2100
MD14,BAGGIOVARA,VIA JACOPO DA PORTO SUD,MODENA,036023,10.8575693959,44.6109895494,10.8575693959 44.6109895494,4326                            ,54,TIM,STAZIONE RADIO BASE,ATTIVO,ATTIVA,
MO073,VIALE CUCCHIARI,VIA MONTE SABOTINO 113-115,MODENA,036023,10.9396327179,44.6396284123,10.9396327179 44.6396284123,4326                            ,34,WIND3,STAZIONE RADIO BASE,NON ATTIVO,CONCLUSA,
MD09,MO VACIGLIO,"VIA TIGNALE DEL GARDA,76",MODENA,036023,10.9362880252,44.6202045601,10.9362880252 44.6202045601,4326                            ,37,TIM,STAZIONE RADIO BASE,ATTIVO,ATTIVA,GSM1800 - LTE1800 - LTE2100 - UMTS2100
MD07,MO VIA UCCELLIERA,VIA UCCELLIERA,MODENA,036023,10.892356,44.655814,10.892356 44.655814,4326                            ,36,TIM,STAZIONE RADIO BASE,ATTIVO,ATTIVA,GSM1800 - LTE800 - LTE1800 - LTE2100 - UMTS2100
MO2025-A,MODENA NORD,"VIALE VIRGILIO,30 - PARCHEGGIO CENTRO SERVIZI",MODENA,036023,10.8626299733,44.6525600263,10.8626299733 44.6525600263,4326                            ,41,VODAFONE,STAZIONE RADIO BASE,ATTIVO,ATTIVA,
MO4807-A,VALLE PANARO,LOCALITA' MERIGGIO,PAVULLO NEL FRIGNANO,036030,10.9098489754,44.3368955224,10.9098489754 44.3368955224,4326                            ,582,VODAFONE,STAZIONE RADIO BASE,ATTIVO,ATTIVA,GSM900 - GSM1800 - LTE800 - LTE1800 - UMTS900 - UMTS2100
MO07,PAVULLO,"VIA MANNI,27",PAVULLO NEL FRIGNANO,036030,10.8318788551,44.3381105948,10.8318788551 44.3381105948,4326                            ,686,TIM,STAZIONE RADIO BASE,ATTIVO,ATTIVA,GSM900 - GSM1800 - LTE800 - LTE1800 - UMTS900 - UMTS2100
MO4849-B,S. ANNA PELAGO,LOC. VACCHERECCE,PIEVEPELAGO,036031,10.569022,44.181397,10.569022 44.181397,4326                            ,1192,VODAFONE,STAZIONE RADIO BASE,ATTIVO,ATTIVA,GSM900 - LTE800 - LTE1800 - UMTS900 - UMTS2100
MD73,SAN FELICE SUL PANARO OVEST,"VIA DEL COMMERCIO,440",SAN FELICE SUL PANARO,036037,11.1298545103,44.8351085186,11.1298545103 44.8351085186,4326                            ,16,TIM,STAZIONE RADIO BASE,ATTIVO,ATTIVA,GSM900 - LTE800 - LTE1800 - UMTS900 - UMTS2100
MO21,SASSUOLO SUD,"VIA G. D'AREZZO, SNC  -  C/O CENTRALE TELECOM",SASSUOLO,036040,10.7796080468,44.5312567589,10.7796080468 44.5312567589,4326                            ,138,TIM,STAZIONE RADIO BASE,NON ATTIVO,CONCLUSA,
MO4850-A,MONTE CIMONE,STRADA COMUNALE DEI MONTI - PASSO DEL LUPO,SESTOLA,036043,10.7211700821,44.2142374735,10.7211700821 44.2142374735,4326                            ,1600,VODAFONE,STAZIONE RADIO BASE,ATTIVO,ATTIVA,GSM900 - LTE1800 - UMTS900 - UMTS2100
PC019,ALSENO,STRADA DELLA CATELLANA,ALSENO,033002,9.9692935,44.9062635,9.9692935 44.9062635,4326                            ,69,WIND3,STAZIONE RADIO BASE,NON ATTIVO,CONCLUSA,GSM900 - GSM1800 - UMTS2100
PC1478-A,ALSENO,VIA ROMA 53 C/O CASEIFICIO GORRA,ALSENO,033002,9.975434,44.896767,9.975434 44.896767,4326                            ,73,VODAFONE,STAZIONE RADIO BASE,ATTIVO,ATTIVA,GSM900 - GSM1800 - LTE800 - LTE1800 - LTE2100 - UMTS900 - UMTS2100
PC15,CARPANETO PIACENTINO,"VIA DON MINZONI,10 - C/O CENTRALE TELECOM",CARPANETO PIACENTINO,033011,9.7930992,44.912707,9.7930992 44.912707,4326                            ,115,TIM,STAZIONE RADIO BASE,ATTIVO,ATTIVA,GSM900 - GSM1800 - LTE800 - LTE1800 - UMTS900 - UMTS2100
PC321,FIORENZUOLA OVEST,"STRADA VICINALE DEL FRASCALE, LOC. PAVARANA",FIORENZUOLA D'ARDA,033021,9.900375,44.927174,9.900375 44.927174,4326                            ,84,WIND3,STAZIONE RADIO BASE,NON ATTIVO,CONCLUSA,UMTS2100
PC3661-C,GOSSOLENGO,VIA SOPRANI C/O CENTRO SPORTIVO,GOSSOLENGO,033023,9.6096843,45.0008177,9.6096843 45.0008177,4326                            ,88,VODAFONE,STAZIONE RADIO BASE,ATTIVO,ATTIVA,GSM900 - GSM1800 - LTE800 - LTE1800 - LTE2100 - UMTS900
PC3709-A,TASSARA,VIA TASSARA,NIBBIANO,033029,9.3334329,44.950206,9.3334329 44.950206,4326                            ,486,VODAFONE,MICROCELLA,ATTIVO,ATTIVA,GSM900
PC036,VIA EMILIA PAVESE,VIA BOTTINI,PIACENZA,033032,9.655728,45.054344,9.655728 45.054344,4326                            ,56,WIND3,STAZIONE RADIO BASE,NON ATTIVO,CONCLUSA,GSM900 - GSM1800 - LTE800 - LTE2600 - UMTS900 - UMTS2100
PC006,ENEL PIACENZA OVEST,VIA MASCARETTI,PIACENZA,033032,9.6744007,45.0553867,9.6744007 45.0553867,4326                            ,55,WIND3,STAZIONE RADIO BASE,NON ATTIVO,CONCLUSA,GSM900 - GSM1800 - LTE800 - LTE2100 - LTE2600 - UMTS900 - UMTS2100
PC044,S. AGATA,VIA RAGGIO C/O DEPURATORE COMUNALE,PONTENURE,033037,9.795158,44.999416,9.795158 44.999416,4326                            ,61,WIND3,STAZIONE RADIO BASE,NON ATTIVO,CONCLUSA,GSM900 - GSM1800 - UMTS2100
PC07,RIVERGARO,VIA DEL PERETO CENTRALE TELECOM,RIVERGARO,033038,9.597543,44.915363,9.597543 44.915363,4326                            ,137,TIM,STAZIONE RADIO BASE,ATTIVO,ATTIVA,GSM900 - LTE800 - LTE1800 - UMTS900 - UMTS2100
PR036,BARDI,,BARDI,034002,9.7206064,44.6311216,9.7206064 44.6311216,4326                            ,,WIND3,STAZIONE RADIO BASE,ATTIVO,ATTIVA,GSM900 - GSM1800 - UMTS900 - UMTS2100
PR82,OZZANO TARO,"VIA NAZIONALE,45",COLLECCHIO,034009,10.1453644,44.7144464,10.1453644 44.7144464,4326                            ,127,TIM,STAZIONE RADIO BASE,ATTIVO,ATTIVA,GSM900 - LTE800 - LTE1800 - UMTS900 - UMTS2100
PR10,COLLECCHIO,"VIA LA SPEZIA,84/A",COLLECCHIO,034009,10.2130701316,44.7506503635,10.2130701316 44.7506503635,4326                            ,117,TIM,STAZIONE RADIO BASE,ATTIVO,ATTIVA,GSM900 - GSM1800 - LTE800 - LTE1800 - UMTS900 - UMTS2100
PR060,COZZANO,VIA SESIOLO VICINO TRALICCIO RAI,CORNIGLIO,034012,10.1723742,44.5677515,10.1723742 44.5677515,4326                            ,825,WIND3,STAZIONE RADIO BASE,NON ATTIVO,CONCLUSA,
PR363,FELINO,VIA CALESTANO 64,FELINO,034013,10.232093,44.699232,10.232093 44.699232,4326                            ,181,WIND3,STAZIONE RADIO BASE,NON ATTIVO,CONCLUSA,
PR021,ENEL TRONCHI,VIA TRONCHI. ENEL VIGHEFFIO,PARMA,034027,10.2965444,44.7789831,10.2965444 44.7789831,4326                            ,75,WIND3,STAZIONE RADIO BASE,NON ATTIVO,CONCLUSA,
PR4673-B,,"VIA AVOGADRO,4",PARMA,034027,10.3038027186,44.8035715182,10.3038027186 44.8035715182,4326                            ,"54,6",VODAFONE,STAZIONE RADIO BASE,ATTIVO,ATTIVA,GSM900 - GSM1800 - UMTS900
PR32,PR NORD/EST,"VIALE MENTANA, 27/29",PARMA,034027,10.3389824,44.8028223,10.3389824 44.8028223,4326                            ,"51,1",TIM,STAZIONE RADIO BASE,NON ATTIVO,CONCLUSA,
PR002,VIA BANDINI,TORRE FARO STADIO TARDINI,PARMA,034027,10.3384481,44.7957852,10.3384481 44.7957852,4326                            ,62,WIND3,STAZIONE RADIO BASE,NON ATTIVO,CONCLUSA,
PR70,SAN POLO Z.I. ,"VIA PIZZOLESE C/O STABILIMENTO TECNOPALI,46/A",PARMA,034027,10.3613985,44.8708357,10.3613985 44.8708357,4326                            ,"32,1",TIM,STAZIONE RADIO BASE,ATTIVO,ATTIVA,
PR19,CHIOZZOLA,VIA VIAZZA  14,PARMA,034027,10.3932625362,44.8235607632,10.3932625362 44.8235607632,4326                            ,"36,4",TIM,STAZIONE RADIO BASE,ATTIVO,ATTIVA,
PR001,SALSOMAGGIORE-BASSO,VIA MONTECUCCO (LOC. COTIGNACO),SALSOMAGGIORE TERME,034032,9.9867332,44.8037248,9.9867332 44.8037248,4326                            ,229,WIND3,STAZIONE RADIO BASE,NON ATTIVO,CONCLUSA,
PR2018-C,SAN SECONDO PARMENSE,"VIA BELLINI, 9",SAN SECONDO PARMENSE,034033,10.2313901362,44.9228851577,10.2313901362 44.9228851577,4326                            ,37,VODAFONE,STAZIONE RADIO BASE,ATTIVO,ATTIVA,
PR019,SORAGNA,DEPURATORE COMUNALE,SORAGNA,034036,10.1310199,44.9347977,10.1310199 44.9347977,4326                            ,40,WIND3,STAZIONE RADIO BASE,NON ATTIVO,CONCLUSA,
PR048,,"VIA ARGINE NAVIGLIO, 5/7",TORRILE,034041,10.3663892,44.8859217,10.3663892 44.8859217,4326                            ,30,WIND3,STAZIONE RADIO BASE,NON ATTIVO,CONCLUSA,
PR66,TORRILE,STRADA DELLA SELVA N.10,TORRILE,034041,10.3271524873,44.9156813557,10.3271524873 44.9156813557,4326                            ,32,TIM,STAZIONE RADIO BASE,ATTIVO,ATTIVA,GSM900 - GSM1800 - UMTS900
PR51,VARSI,VIA CA`DEL SOLDATO,VARSI,034046,9.8369801,44.6896016,9.8369801 44.6896016,4326                            ,694,TIM,STAZIONE RADIO BASE,ATTIVO,ATTIVA,GSM900 - LTE800 - LTE1800 - UMTS900 - UMTS2100
RE59,,"VIA EMILIA S. STEFANO, 3/D",REGGIO NELL'EMILIA,035033,10.63039444,44.69869722,10.63039444 44.69869722,4326                            ,56,TIM,MICROCELLA,ATTIVO,ATTIVA,GSM900
RE18,BAGNOLO IN PIANO,"VIA REPUBBLICA, 16 C/O ACQUEDOTTO",BAGNOLO IN PIANO,035002,10.6694448118,44.7643395424,10.6694448118 44.7643395424,4326                            ,30,TIM,STAZIONE RADIO BASE,ATTIVO,ATTIVA,GSM900 - GSM1800 - LTE800 - LTE1800 - UMTS2100
RE2482-B,BIBBIANO CENTRO,VIA R. FRANCHETTI SNC,BIBBIANO,035004,10.4720091488,44.6687277744,10.4720091488 44.6687277744,4326                            ,116,VODAFONE,STAZIONE RADIO BASE,ATTIVO,ATTIVA,
RE26,BRESCELLO,"VIA F.LLI CERVI,S.N.C.",BRESCELLO,035006,10.5149402549,44.8982018045,10.5149402549 44.8982018045,4326                            ,24,TIM,STAZIONE RADIO BASE,NON ATTIVO,CONCLUSA,GSM900 - LTE800 - LTE1800 - UMTS900 - UMTS2100
RE28,CARPINETI,LOC.C? A  BERRETTI,CARPINETI,035011,10.5123547333,44.4612378952,10.5123547333 44.4612378952,4326                            ,569,TIM,STAZIONE RADIO BASE,ATTIVO,ATTIVA,GSM900 - LTE800 - UMTS900 - UMTS2100
RE3694-B,CORREGGIO EST,VIA SALTINI ANGOLO SS 468 SNC,CORREGGIO,035020,10.7954283271,44.7649114336,10.7954283271 44.7649114336,4326                            ,30,VODAFONE,STAZIONE RADIO BASE,ATTIVO,ATTIVA,GSM900 - UMTS900
RE4746-C,FABBRICO,VIA NAVIGLIO 19,FABBRICO,035021,10.8122345572,44.8651879327,10.8122345572 44.8651879327,4326                            ,22,VODAFONE,STAZIONE RADIO BASE,ATTIVO,ATTIVA,GSM900 - GSM1800 - LTE800 - LTE1800 - UMTS2100
RE49,GATTATICO-PRATICELLO,VIA DON MILANI,GATTATICO,035022,10.4652554408,44.7919805023,10.4652554408 44.7919805023,4326                            ,"41,5",TIM,STAZIONE RADIO BASE,ATTIVO,ATTIVA,GSM900 - LTE800 - LTE1800 - UMTS900 - UMTS2100
RE401,PRATICELLO,VIA VALLE,GATTATICO,035022,10.4697407626,44.8127802816,10.4697407626 44.8127802816,4326                            ,32,WIND3,STAZIONE RADIO BASE,NON ATTIVO,CONCLUSA,
RE44,GUALTIERI,PRESSO NUOVA AREA P.I.P. (VIA FATTORI),GUALTIERI,035023,10.6230202443,44.8904235106,10.6230202443 44.8904235106,4326                            ,"20,4",TIM,STAZIONE RADIO BASE,ATTIVO,ATTIVA,
RE040,GUALTIERI,PRESSO NUOVA AREA P.I.P. (VIA FATTORI),GUALTIERI,035023,10.6230202443,44.8904235106,10.6230202443 44.8904235106,4326                            ,"20,4",WIND3,STAZIONE RADIO BASE,NON ATTIVO,CONCLUSA,
RE087,ENEL TARLANDA,C/O CENTRO RADIO ENEL M.TE TARLANDA,LIGONCHIO,035025,10.344666965,44.3080157857,10.344666965 44.3080157857,4326                            ,1206,WIND3,STAZIONE RADIO BASE,NON ATTIVO,CONCLUSA,
RE020,NOVELLARA,STRADA PROV. REGGIOLO-ROLO,NOVELLARA,035028,10.7430781706,44.850503056,10.7430781706 44.850503056,4326                            ,21,WIND3,STAZIONE RADIO BASE,NON ATTIVO,CONCLUSA,
RE400,POVIGLIO,VIA A. EINSTEIN - AREA COMUNALE,POVIGLIO,035029,10.5470923,44.8426585,10.5470923 44.8426585,4326                            ,"27,2",WIND3,STAZIONE RADIO BASE,NON ATTIVO,CONCLUSA,
RE3D,QUATTRO CASTELLA EST,CIMITERO COMUNALE,QUATTRO CASTELLA,035030,10.4773328178,44.6384567782,10.4773328178 44.6384567782,4326                            ,"153,5",TIM,STAZIONE RADIO BASE,ATTIVO,ATTIVA,GSM900 - LTE800 - UMTS900 - UMTS2100
RE05,RE STADIO,"VIA CARAVAGGIO,9",REGGIO NELL'EMILIA,035033,10.653010791,44.6856579728,10.653010791 44.6856579728,4326                            ,55,TIM,STAZIONE RADIO BASE,ATTIVO,ATTIVA,GSM900 - GSM1800 - LTE800 - LTE1800 - UMTS2100
RE22,RE PRATO,"VIA AZZARRI DEGLI,SNC",REGGIO NELL'EMILIA,035033,10.715735024,44.6992254883,10.715735024 44.6992254883,4326                            ,44,TIM,STAZIONE RADIO BASE,ATTIVO,ATTIVA,GSM900 - GSM1800 - LTE800 - LTE1800 - UMTS2100
RE316 (ex H3G RE2894),VIA EMILIA S. STEFANO,"VIA EMILIA SANTO STEFANO, 50",REGGIO NELL'EMILIA,035033,10.6243975,44.7004572,10.6243975 44.7004572,4326                            ,,WIND3,STAZIONE RADIO BASE,NON ATTIVO,CONCLUSA,
RE081,PIEVE MODOLENA,"VIA FRATELLI CERVI, 75",REGGIO NELL'EMILIA,035033,10.5940703848,44.7119003782,10.5940703848 44.7119003782,4326                            ,"45,6",WIND3,STAZIONE RADIO BASE,NON ATTIVO,CONCLUSA,
RE95,RE VIA GINZBURG,"VIA KENNEDY, 15",REGGIO NELL'EMILIA,035033,10.6127,44.70754,10.6127 44.70754,4326                            ,"49,3",TIM,STAZIONE RADIO BASE,ATTIVO,ATTIVA,GSM900 - GSM1800 - LTE800 - LTE1800 - UMTS2100
RE4771-A,VILLA FRATTI,"VIA V. GIOVANARDI,S.N.C",REGGIO NELL'EMILIA,035033,10.5379155552,44.660368825,10.5379155552 44.660368825,4326                            ,124,VODAFONE,STAZIONE RADIO BASE,ATTIVO,ATTIVA,GSM900 - LTE800 - LTE1800 - UMTS2100
RE088,REGGIOLO ZI,"VIA C. COLOMBO, SNC",REGGIOLO,035032,10.8443358974,44.9121400373,10.8443358974 44.9121400373,4326                            ,18,WIND3,STAZIONE RADIO BASE,NON ATTIVO,CONCLUSA,
RE4736-B,RIO SALICETO,VIA ROSA LUXEMBURG,RIO SALICETO,035034,10.80915555,44.81476111,10.80915555 44.81476111,4326                            ,"23,4",VODAFONE,STAZIONE RADIO BASE,ATTIVO,ATTIVA,GSM900 - LTE800 - LTE1800 - UMTS900 - UMTS2100
RE036,S.MARTINO IN RIO,PIAZZALE AREA IND.,SAN MARTINO IN RIO,035037,10.773373694,44.7284201459,10.773373694 44.7284201459,4326                            ,34,WIND3,STAZIONE RADIO BASE,NON ATTIVO,CONCLUSA,
RE054,VIANO,"VIA CASE STRADONI, 2",VIANO,035044,10.6537043217,44.5445385649,10.6537043217 44.5445385649,4326                            ,246,WIND3,STAZIONE RADIO BASE,NON ATTIVO,CONCLUSA,
PC0E,CONSERVE ITALIA MC,"VIA CASTELLANA, C/O STABILIMENTO CONSERVE ITALIA LUSURASCO 8",ALSENO,033002,9.899286901,44.8889483007,9.899286901 44.8889483007,4326                            ,121,TIM,MICROCELLA,ATTIVO,ATTIVA,UMTS2100
PR75,BORGO VAL DI TARO PAESE,"VIA MOSER ,SNC",BORGO VAL DI TARO,034006,9.7714269,44.4840759,9.7714269 44.4840759,4326                            ,451,TIM,STAZIONE RADIO BASE,ATTIVO,ATTIVA,GSM900 - LTE800 - LTE1800 - UMTS900 - UMTS2100
RE6F,CORREGGIO OVEST,PRESSO PIAZZALE RICCARDO FINZI,CORREGGIO,035020,10.7678110179,44.7708608216,10.7678110179 44.7708608216,4326                            ,33,TIM,STAZIONE RADIO BASE,ATTIVO,ATTIVA,LTE800 - UMTS2100
PR0226-A,SALSI,"VIA VERONA, 21",PARMA,034027,10.3390628,44.8117857,10.3390628 44.8117857,4326                            ,47,VODAFONE,STAZIONE RADIO BASE,ATTIVO,ATTIVA,LTE800 - LTE1800 - UMTS900 - UMTS2100
PR2313-A,SORAGNA TRENTO,VIA BONATTI 76,SORAGNA,034036,10.1200551,44.9345622,10.1200551 44.9345622,4326                            ,"42,5",VODAFONE,STAZIONE RADIO BASE,ATTIVO,ATTIVA,
FO107,CHIESA ROSSA ,"AREA  AGRICOLA C/O VIA CANAPINO, 481 LOCALITA' DIEGARO - CESENA",CESENA,040007,12.1990520804,44.1594216469,12.1990520804 44.1594216469,4326                            ,33,WIND3,STAZIONE RADIO BASE,ATTIVO,ATTIVA,GSM1800 - LTE800 - LTE1800 - LTE2600 - UMTS900 - UMTS2100
MO082,MO CENTRO STORICO,"VIA FRANCESCO SELMI, 57-59",MODENA,036023,10.924967,44.643506,10.924967 44.643506,4326                            ,35,WIND3,STAZIONE RADIO BASE,ATTIVO,ATTIVA,
MD1B,POLINAGO SUD,VIA S.MARTINO,POLINAGO,036032,10.7205593274,44.3490436587,10.7205593274 44.3490436587,4326                            ,910,TIM,STAZIONE RADIO BASE,ATTIVO,ATTIVA,GSM900 - UMTS2100
RE2540-A,SAN MARTINO IN RIO ZI,ROTONDA INTERSEZIONE VIA DEL CORNO - VIA DELLA RESISTENZA,SAN MARTINO IN RIO,035037,10.7864843795,44.7391710959,10.7864843795 44.7391710959,4326                            ,34,VODAFONE,STAZIONE RADIO BASE,ATTIVO,ATTIVA,UMTS900
RE3952-A,SSI-MANTEGNA,"VIA R. SANZIO,13",NOVELLARA,035028,10.7302258641,44.8502395592,10.7302258641 44.8502395592,4326                            ,24,VODAFONE,STAZIONE RADIO BASE,ATTIVO,ATTIVA,
PC5083-A,S. NICOLO' Z.I.,VIA RIVA TREBBIA C/O CAMPO SPORTIVO,ROTTOFRENO,033039,9.6181385,45.0544694,9.6181385 45.0544694,4326                            ,63,VODAFONE,STAZIONE RADIO BASE,ATTIVO,ATTIVA,GSM900 - LTE800 - LTE2100 - UMTS2100
PC5086-A,FOSSADELLO A21,"VIA FORNACE VECCHIA, 6 - LOC. FOSSADELLO",CAORSO,033010,9.8044932,45.0391272,9.8044932 45.0391272,4326                            ,50,VODAFONE,STAZIONE RADIO BASE,ATTIVO,ATTIVA,GSM900 - LTE800 - LTE1800 - UMTS900 - UMTS2100
FO096,CESENA STADIO ,"VIA MARZOLINO,1",CESENA,040007,12.267995,44.136843,12.267995 44.136843,4326                            ,29,WIND3,STAZIONE RADIO BASE,ATTIVO,ATTIVA,GSM900 - LTE800 - LTE1800 - LTE2100 - LTE2600 - UMTS900 - UMTS2100
MO078,SAN FRANCESCO,"VIA CALLE DI LUCA, 8/10",MODENA,036023,10.921203,44.643662,10.921203 44.643662,4326                            ,40,WIND3,MICROCELLA,ATTIVO,ATTIVA,
PR7F,ROCCABIANCA PAESE,VIA A. TOSCANINI C/O TORRE PIEZOMETRICA,ROCCABIANCA,034030,10.2143508,45.0086159,10.2143508 45.0086159,4326                            ,31,TIM,STAZIONE RADIO BASE,ATTIVO,ATTIVA,GSM900 - LTE800 - UMTS900 - UMTS2100
MO1498-A,CA DI SOLA,VIA PER MODENA,CASTELVETRO DI MODENA,036008,10.956512969,44.5352386977,10.956512969 44.5352386977,4326                            ,78,VODAFONE,STAZIONE RADIO BASE,ATTIVO,ATTIVA,GSM900 - LTE800 - LTE1800 - LTE2100 - UMTS2100
MO2088-C,BOMPORTO CENTRO SSI,VIA RAVARINO CARPI,BOMPORTO,036002,11.037938628,44.7301503008,11.037938628 44.7301503008,4326                            ,,VODAFONE,STAZIONE RADIO BASE,ATTIVO,ATTIVA,GSM900 - GSM1800 - LTE800 - LTE2100 - UMTS2100
RE4307-A,SANTA MARIA DELLA FOSSA,STRADA VICINALE SANTA MARIA,NOVELLARA,035028,10.6998430165,44.8025271243,10.6998430165 44.8025271243,4326                            ,"28,5",VODAFONE,STAZIONE RADIO BASE,ATTIVO,ATTIVA,GSM1800 - LTE800 - LTE1800 - UMTS2100
RE4348-A,ROLO A22,VIA 2 GIUGNO C/O Z.I.,ROLO,035035,10.8436684856,44.8679070417,10.8436684856 44.8679070417,4326                            ,"20,7",VODAFONE,STAZIONE RADIO BASE,ATTIVO,ATTIVA,GSM900 - UMTS900
PR116,LESIGNANO DE' BAGNI,"VIA ARGINI, 30",LESIGNANO DE' BAGNI,034019,10.304185,44.64646,10.304185 44.64646,4326                            ,236,WIND3,STAZIONE RADIO BASE,NON ATTIVO,CONCLUSA,
MD40,FORMIGINE CENTRO,VIA DELLO SPORT S.N.C.,FORMIGINE,036015,10.8402164985,44.5739115223,10.8402164985 44.5739115223,4326                            ,"84,5",TIM,STAZIONE RADIO BASE,NON ATTIVO,CONCLUSA,
MD83,MO ALBARETO SSI,"VIA BATTAGLIA, 124",MODENA,036023,10.9647656866,44.681913441,10.9647656866 44.681913441,4326                            ,29,TIM,STAZIONE RADIO BASE,ATTIVO,ATTIVA,GSM900 - LTE800 - LTE1800 - LTE2100 - UMTS900 - UMTS2100
PR96,PR PAISIELLO SSI ,"VIA PARIGI, C/O PARCO MARTINI",PARMA,034027,10.3523398,44.7970626,10.3523398 44.7970626,4326                            ,51,TIM,STAZIONE RADIO BASE,ATTIVO,ATTIVA,
MO2080-A,DUE GIUGNO,VIA CIRCONVALLAZIONE C/O CAMPO SPORTIVO,MIRANDOLA,036022,11.070214,44.888756,11.070214 44.888756,4326                            ,"15,9",VODAFONE,STAZIONE RADIO BASE,ATTIVO,ATTIVA,GSM900 - LTE800 - LTE1800 - UMTS2100
MO4235-A,TAV PIOPPA,"VIA PANZANO,S.N.C",CASTELFRANCO EMILIA,036006,11.0556469026,44.6272090184,11.0556469026 44.6272090184,4326                            ,33,VODAFONE,STAZIONE RADIO BASE,ATTIVO,ATTIVA,GSM900 - LTE800 - LTE1800 - LTE2100 - UMTS900 - UMTS2100
FO066,VIA XXIV MAGGIO ,"VIA OBERDAN, 1/D (SHARING VODAFONE) - FORLI' ",FORLI' ,040012,12.046587,44.220089,12.046587 44.220089,4326                            ,27,WIND3,STAZIONE RADIO BASE,ATTIVO,ATTIVA,GSM900 - GSM1800 - LTE800 - LTE1800 - LTE2100 - LTE2600 - UMTS900 - UMTS2100
MO41031_001,,"VIA PANARIA OVEST,1/1",CAMPOSANTO,036004,11.127075,44.786174,11.127075 44.786174,4326                            ,"17,5",ILIAD,STAZIONE RADIO BASE,ATTIVO,ATTIVA,LTE800 - LTE1800 - LTE2600 - UMTS900 - UMTS2100
MO5069-A,GAZZUOLI,VIA GAZZUOLI LOC. MAGRETA,FORMIGINE,036015,10.807831612,44.6094927751,10.807831612 44.6094927751,4326                            ,69,VODAFONE,STAZIONE RADIO BASE,ATTIVO,ATTIVA,
L445S012,,"V. A. GRAMSCI, 3",SANT'ILARIO D'ENZA,035039,10.451215,44.76549,10.451215 44.76549,4326                            ,56,RFI,STAZIONE RADIO BASE,ATTIVO,ATTIVA,GSM900
L445S015,,V. DELLA STAZIONE 1,RUBIERA,035036,10.785577,44.654791,10.785577 44.654791,4326                            ,53,RFI,STAZIONE RADIO BASE,ATTIVO,ATTIVA,GSM900
L463S004,SOLIGNANO,V. CAPOLUOGO 12,SOLIGNANO,034035,9.979911,44.613956,9.979911 44.613956,4326                            ,232,RFI,STAZIONE RADIO BASE,ATTIVO,ATTIVA,GSM900
L463S006,BERCETO,LOC. GHIARE,BERCETO,034004,9.931828,44.556372,9.931828 44.556372,4326                            ,288,RFI,STAZIONE RADIO BASE,ATTIVO,ATTIVA,GSM900
L150S016,BORGO PAGLIA,"LUNGO LINEA TAV, KM60+369",CADEO,033007,9.874,44.9771549,9.874 44.9771549,4326                            ,"59,5",RFI,STAZIONE RADIO BASE,ATTIVO,ATTIVA,GSM900
L150S020,,P.ZA DELLA REPUBBLICA,FIDENZA,034014,10.0680202,44.8673786,10.0680202 44.8673786,4326                            ,74,RFI,STAZIONE RADIO BASE,ATTIVO,ATTIVA,GSM900
L150S039, STAZIONE FERROVIARIA DI MODENA,P.ZA DANTE 14 STAZIONE RFI DI MODENA,MODENA,036023,10.930195,44.655375,10.930195 44.655375,4326                            ,"33,2",RFI,STAZIONE RADIO BASE,ATTIVO,ATTIVA,GSM900
GALL.BASTARDO NORD,,LUNGO LINEA,BORGO VAL DI TARO,034006,9.868988,44.529927,9.868988 44.529927,4326                            ,,RFI,STAZIONE RADIO BASE,ATTIVO,ATTIVA,GSM900
L463S005,GALLERIA SCORZA IMBOCCO NORD,LUNGO LINEA,BERCETO,034004,9.9461153315,44.5896163292,9.9461153315 44.5896163292,4326                            ,274,RFI,STAZIONE RADIO BASE,ATTIVO,ATTIVA,GSM900
RE130,QUATTRO CASTELLA CENTRO,VIA SANTI C/O CIMITERO COMUNALE,QUATTRO CASTELLA,035030,10.4766992727,44.6385820065,10.4766992727 44.6385820065,4326                            ,"153,5",WIND3,STAZIONE RADIO BASE,NON ATTIVO,CONCLUSA,
RE138,MONTE COSTABONA,VIA DEL MONTE COSTABONA C/O SITO TELECOM,VILLA MINOZZO,035045,10.489162959,44.3422865066,10.489162959 44.3422865066,4326                            ,"891,3",WIND3,STAZIONE RADIO BASE,NON ATTIVO,CONCLUSA,
MO5068,FRASSINORO PAESE,VIA GRANDE DEL MARE,FRASSINORO,036016,10.5695692179,44.2988516976,10.5695692179 44.2988516976,4326                            ,1190,VODAFONE,STAZIONE RADIO BASE,ATTIVO,ATTIVA,
MO6059-E,MEDOLLA,"VIA GRANDE, 16 - C/O ISOLA ECOLOGICA",MEDOLLA,036021,11.077036,44.849968,11.077036 44.849968,4326                            ,"21,4",VODAFONE,STAZIONE RADIO BASE,ATTIVO,ATTIVA,GSM900 - LTE800 - LTE1800 - LTE2100 - UMTS900
PR2741-D,TICCHIANO,"MONTE CAIO, TRALICCIO ENEL        ",TIZZANO VAL PARMA,034039,10.1591787096,44.4645165047,10.1591787096 44.4645165047,4326                            ,1490,VODAFONE,STAZIONE RADIO BASE,ATTIVO,ATTIVA,GSM900 - LTE800 - UMTS900 - UMTS2100
FO113,GAMBETTOLA BIS,VIA I MAGGIO,GAMBETTOLA,040015,12.333824,44.11162,12.333824 44.11162,4326                            ,31,WIND3,STAZIONE RADIO BASE,ATTIVO,ATTIVA,GSM900 - LTE800 - LTE1800 - LTE2100 - LTE2600 - UMTS900 - UMTS2100
MD0E,LE CASELLE,TERRENO COMUNALE PRESSO CURVA DI VIA SALVATORE QUASIMODO,NOVI DI MODENA,036028,10.948446,44.825844,10.948446 44.825844,4326                            ,"20,5",TIM,STAZIONE RADIO BASE,ATTIVO,ATTIVA,GSM900 - LTE1800 - UMTS900 - UMTS2100
PRB1,,"VIA DIVISIONE JULIA,SNC",BERCETO,034004,9.9869692,44.5108488,9.9869692 44.5108488,4326                            ,787,TIM,STAZIONE RADIO BASE,ATTIVO,ATTIVA,GSM900 - LTE800 - LTE1800 - UMTS900 - UMTS2100
PC361,LUGAGNANO D'ARDA,VIA DELLA CEMENTERIA 1,VERNASCA,033044,9.829411,44.813703,9.829411 44.813703,4326                            ,222,WIND3,STAZIONE RADIO BASE,NON ATTIVO,CONCLUSA,UMTS900 - UMTS1800 - UMTS2100
MO086TL,CARPI SUD,VIA SANTI 1,CARPI,036005,10.879673478600001,44.7778139263,10.879673478600001 44.7778139263,4326                            ,28,LEPIDA,STAZIONE RADIO BASE,ATTIVO,ATTIVA,GSM450
RE0028W,,VIA BOTTEGARO,SCANDIANO,035040,10.6856765643,44.5710686005,10.6856765643 44.5710686005,4326                            ,395,LINKEM,STAZIONE RADIO BASE,ATTIVO,ATTIVA,WIMAX
PR127,SALSOMAGGIORE CENTRO,VIA RIMEMBRANZE,SALSOMAGGIORE TERME,034032,9.9717504,44.8118809,9.9717504 44.8118809,4326                            ,260,WIND3,STAZIONE RADIO BASE,NON ATTIVO,CONCLUSA,
PR143,RUBBIANO,LOC. SANT`AGNESE-FRAZIONE DI RUBBIANO,SOLIGNANO,034035,10.083797,44.6868861,10.083797 44.6868861,4326                            ,152,WIND3,STAZIONE RADIO BASE,NON ATTIVO,CONCLUSA,
FOA5,GRISIGNANO ,"AREA VERDE COMUNALE C/O VIA MADRE TERESA DI CALCUTTA, SNC ZONA ARTIGIANALE LOC. SAN MARTINO IN STRADA",FORLI' ,040012,12.039838,44.175199,12.039838 44.175199,4326                            ,45,TIM,STAZIONE RADIO BASE,ATTIVO,ATTIVA,GSM900 - GSM1800 - LTE1800 - UMTS2100
PC6B,BIOMEDICA SANTA LUCIA MC,"VIA VITTIME DELLA STRADA, 2",GRAGNANO TREBBIENSE,033024,9.5731473,45.0328458,9.5731473 45.0328458,4326                            ,68,TIM,MICROCELLA,ATTIVO,ATTIVA,GSM900
PR2E,PR VITTORIO EMANUELE,STRADA DELLA REPUBBLICA,PARMA,034027,10.3366223669,44.7995775272,10.3366223669 44.7995775272,4326                            ,"53,2",TIM,STAZIONE RADIO BASE,ATTIVO,ATTIVA,
REBA,,VIA BORA 8,CASTELLARANO,035014,10.679104,44.475365,10.679104 44.475365,4326                            ,"191,9",TIM,STAZIONE RADIO BASE,ATTIVO,ATTIVA,GSM900 - UMTS2100
REBC,,VIA VALBONA,COLLAGNA,035019,10.2698484,44.3491015,10.2698484 44.3491015,4326                            ,953,TIM,STAZIONE RADIO BASE,ATTIVO,ATTIVA,GSM900 - LTE800 - UMTS2100
FO4966,VECCHIAZZANO ,VIA CA' DOLCE,FORLI' ,040012,12.023512,44.197477,12.023512 44.197477,4326                            ,41,VODAFONE,STAZIONE RADIO BASE,ATTIVO,ATTIVA,GSM900 - GSM1800 - LTE800 - UMTS900 - UMTS2100
FC0828,FO-CARPINELLO ,"VIA ERMELLINO, 3 LOC. CARPINELLO",FORLI' ,040012,12.135908,44.237079,12.135908 44.237079,4326                            ,22,VODAFONE,STAZIONE RADIO BASE,ATTIVO,ATTIVA,GSM900 - GSM1800 - LTE800 - LTE1800 - UMTS2100
MO0164-B,,"VIA ARTE DEL TRUCIOLO, 2",CARPI,036005,10.8578123415,44.7846263266,10.8578123415 44.7846263266,4326                            ,29,VODAFONE,STAZIONE RADIO BASE,ATTIVO,ATTIVA,GSM900 - GSM1800 - LTE800 - LTE1800 - UMTS900 - UMTS2100
PC344,CASTELL'ARQUATO,C/O AREA CIMITERIALE,CASTELL'ARQUATO,033012,9.8615652,44.8488903,9.8615652 44.8488903,4326                            ,253,WIND3,STAZIONE RADIO BASE,NON ATTIVO,CONCLUSA,LTE1800 - UMTS900 - UMTS2100
PR367,FONTANELLATO,"AREA AGRICOLA (STRADA DELLE BERETTINE, SNC) - LOCALIT+A PRIORATO",FONTANELLATO,034015,10.1653576,44.8762365,10.1653576 44.8762365,4326                            ,47,WIND3,STAZIONE RADIO BASE,NON ATTIVO,CONCLUSA,
MO368,MARANELLO ZI NORD,"VIA GIARDINI,62",FIORANO MODENESE,036013,10.862004556,44.5466863651,10.862004556 44.5466863651,4326                            ,106,WIND3,STAZIONE RADIO BASE,ATTIVO,ATTIVA,LTE800 - LTE1800 - LTE2100 - LTE2600 - UMTS900 - UMTS2100
PR308,PO,"VIA PO,5/A",PARMA,034027,10.3206468,44.7875576,10.3206468 44.7875576,4326                            ,61,WIND3,STAZIONE RADIO BASE,ATTIVO,ATTIVA,
RE318 (ex H3G RE2896C),SAN PIETRO,"VIA TOSCHI,27",REGGIO NELL'EMILIA,035033,10.6348566266,44.6952141506,10.6348566266 44.6952141506,4326                            ,57,TRE,STAZIONE RADIO BASE,ATTIVO,ATTIVA,LTE1800 - UMTS2100
REBE,ARCETO SUD,VIA CARAFFA C/O IMPIANTI SPORTIVI DI ARCETO,SCANDIANO,035040,10.7209084415,44.6148156638,10.7209084415 44.6148156638,4326                            ,74,TIM,STAZIONE RADIO BASE,ATTIVO,ATTIVA,GSM900 - GSM1800 - LTE800 - LTE1800 - UMTS900 - UMTS2100
PR115,TRAVERSETOLO OVEST,"VIA DI MONZATO, 67 - COSITE VODAFONE",TRAVERSETOLO,034042,10.378492,44.649237,10.378492 44.649237,4326                            ,167,WIND3,STAZIONE RADIO BASE,NON ATTIVO,CONCLUSA,
PR313,NAVIGLIETTA,"VIA ZACCONI, 21/C",PARMA,034027,10.3470445621,44.8083803814,10.3470445621 44.8083803814,4326                            ,"46,5",WIND3,STAZIONE RADIO BASE,NON ATTIVO,CONCLUSA,
PR319,BARILLA,VIA TRAVERSANTE PEDRIGNANO,PARMA,034027,10.3626788,44.8347191,10.3626788 44.8347191,4326                            ,37,WIND3,STAZIONE RADIO BASE,NON ATTIVO,CONCLUSA,
5519B,,"VIA AVOGADRO,4",PARMA,034027,10.3038027186,44.8035715182,10.3038027186 44.8035715182,4326                            ,"54,6",TRE,STAZIONE RADIO BASE,ATTIVO,ATTIVA,LTE1800 - UMTS900 - UMTS2100
5516C,STADIO,VIALE PARTIGIANI D'ITALIA  C/O TARDINI,PARMA,034027,10.3394002,44.7953379,10.3394002 44.7953379,4326                            ,55,TRE,STAZIONE RADIO BASE,ATTIVO,ATTIVA,LTE1800 - LTE2600 - UMTS900 - UMTS2100
MO0715-A,SALTINO,VIA RIVALTA DI SOPRA,PRIGNANO SULLA SECCHIA,036033,10.6526225294,44.4230670704,10.6526225294 44.4230670704,4326                            ,412,VODAFONE,STAZIONE RADIO BASE,ATTIVO,ATTIVA,GSM900 - LTE800 - LTE1800 - UMTS900 - UMTS2100
REE0,BORETTO EX RE78,C/O CIMITERO COMUNALE,BORETTO,035005,10.5520537093,44.8979100941,10.5520537093 44.8979100941,4326                            ,22,TIM,STAZIONE RADIO BASE,ATTIVO,ATTIVA,GSM900 - LTE800 - LTE1800 - UMTS900 - UMTS2100
MD8F,CANTINE,VIA ZOBOLI C/O AREA VERDE,NONANTOLA,036027,11.027709,44.678004,11.027709 44.678004,4326                            ,"26,8",TIM,STAZIONE RADIO BASE,ATTIVO,ATTIVA,LTE800 - LTE1800 - UMTS900 - UMTS2100
RECC,CAVRIAGO EST,VIA DEI PRATIVECCHI,CAVRIAGO,035017,10.5435774615,44.6954546083,10.5435774615 44.6954546083,4326                            ,70,TIM,STAZIONE RADIO BASE,ATTIVO,ATTIVA,GSM900 - GSM1800 - LTE1800 - UMTS2100
PRD0,,LOC. TRE CASE - S. FAUSTINO,FIDENZA,034014,10.0462675,44.896198,10.0462675 44.896198,4326                            ,61,TIM,STAZIONE RADIO BASE,NON ATTIVO,CONCLUSA,
PC9A,LUGAGNANO VAL D'ARDA EX PC24,SP LUGAGNANO-VERNASCA,VERNASCA,033044,9.835757,44.8109142,9.835757 44.8109142,4326                            ,350,TIM,STAZIONE RADIO BASE,ATTIVO,ATTIVA,GSM900 - GSM1800 - LTE800 - LTE1800 - UMTS900 - UMTS2100
MD94,MONFESTINO,VIA PER GUARDAROLA - LOC. RICCO' ,SERRAMAZZONI,036042,10.8537204329,44.4252533384,10.8537204329 44.4252533384,4326                            ,586,TIM,STAZIONE RADIO BASE,ATTIVO,ATTIVA,LTE800 - LTE1800 - UMTS900 - UMTS2100
PRD9,MONTECHIARUGOLO,VIA GARIBALDI - FRAZ. BASILICANOVA,MONTECHIARUGOLO,034023,10.36632,44.694703,10.36632 44.694703,4326                            ,127,TIM,STAZIONE RADIO BASE,ATTIVO,ATTIVA,GSM900 - LTE800 - LTE1800 - UMTS900 - UMTS2100
MD98,RANGONE ZI,VIA DELLA TECNICA,CASTELNUOVO RANGONE,036007,10.9257435908,44.5528934021,10.9257435908 44.5528934021,4326                            ,77,TIM,STAZIONE RADIO BASE,NON ATTIVO,CONCLUSA,
MDA7,SAN CESARIO SUL PANARO EX MO77,"VIA LIBERAZIONE, 630",SAN CESARIO SUL PANARO,036036,11.0296308548,44.5712310065,11.0296308548 44.5712310065,4326                            ,49,TIM,STAZIONE RADIO BASE,ATTIVO,ATTIVA,GSM900 - GSM1800 - LTE800 - LTE1800 - UMTS900 - UMTS2100
PR314,STAZIONE,VIA TRENTO 9,PARMA,034027,10.3303869803,44.8093229654,10.3303869803 44.8093229654,4326                            ,30,WIND3,STAZIONE RADIO BASE,NON ATTIVO,CONCLUSA,
3156A,,VIA MARTIRI DI CEFALONIA 10,PARMA,034027,10.332334,44.782383,10.332334 44.782383,4326                            ,65,TRE,STAZIONE RADIO BASE,ATTIVO,ATTIVA,UMTS900 - UMTS2100
5911B,,VIA DELLA CANALINA,REGGIO NELL'EMILIA,035033,10.62011,44.69088,10.62011 44.69088,4326                            ,"60,7",TRE,STAZIONE RADIO BASE,NON ATTIVO,CONCLUSA,LTE1800 - UMTS900 - UMTS2100
MO5385-A,FORMIGINE SW,"VIA FONDACCIA LOCALITA' PONTE FOSSA,SNC",FORMIGINE,036015,10.8219478283,44.5688573199,10.8219478283 44.5688573199,4326                            ,91,VODAFONE,STAZIONE RADIO BASE,ATTIVO,ATTIVA,GSM900 - GSM1800 - LTE800 - LTE1800 - UMTS900 - UMTS2100
MO5944-C,BLU TRE OLMI,STRADA TRE OLMI,MODENA,036023,10.860138,44.661429,10.860138 44.661429,4326                            ,"39,9",VODAFONE,STAZIONE RADIO BASE,ATTIVO,ATTIVA,
PR001RA-B,FELINO,"VIA CALESTANO, 64",FELINO,034013,10.2316403,44.699177,10.2316403 44.699177,4326                            ,184,FASTWEBAIR,STAZIONE RADIO BASE,ATTIVO,ATTIVA,WIMAX
WM-FC-130,,"LOC. GRANAROLO SNC, 47121-47122 FORLI' FC, ITALIA",FORLI' ,040012,11.962006,44.222636,11.962006 44.222636,4326                            ,51,GO INTERNET,STAZIONE RADIO BASE,ATTIVO,ATTIVA,
FC0044A,STAZIONE ,VIA PANDOLFA C/O TORRE DELL'ACQUA,FORLI' ,040012,12.0596,44.22545,12.0596 44.22545,4326                            ,23,LINKEM,STAZIONE RADIO BASE,ATTIVO,ATTIVA,WIMAX
MO0037B,FINALE EMILIA,"VIA ARGINE DESTRO, 2",FINALE EMILIA,036012,11.292652,44.822095,11.292652 44.822095,4326                            ,"12,8",LINKEM,STAZIONE RADIO BASE,ATTIVO,ATTIVA,LTE3500-TDD
PC0037A,BORGONOVO VAL TIDONE,VIA MOTTAZIANA 38,BORGONOVO VAL TIDONE,033006,9.454434,45.01721,9.454434 45.01721,4326                            ,"106,4",LINKEM,STAZIONE RADIO BASE,ATTIVO,ATTIVA,WIMAX
RE0047A,CAVRIAGO,"STRADA PROVINCIALE 28 REGGIO EMILIA - MONTECCHIO, C/O PARCO RIOVALLE",CAVRIAGO,035017,10.5315561755,44.6875597138,10.5315561755 44.6875597138,4326                            ,"84,8",LINKEM,STAZIONE RADIO BASE,ATTIVO,ATTIVA,WIMAX
PC0032A,PC COLOMBO,VIA COLOMBO 29/O,PIACENZA,033032,9.710275,45.0451502,9.710275 45.0451502,4326                            ,54,LINKEM,STAZIONE RADIO BASE,ATTIVO,ATTIVA,WIMAX
PR0043B,,"VIA PO,5/A",PARMA,034027,10.3206468,44.7875576,10.3206468 44.7875576,4326                            ,61,LINKEM,STAZIONE RADIO BASE,ATTIVO,ATTIVA,WIMAX
MO0046B,,"VIA AMENDOLA, 233",MODENA,036023,10.909054,44.634027,10.909054 44.634027,4326                            ,"36,3",LINKEM,STAZIONE RADIO BASE,ATTIVO,ATTIVA,
MO064,FRASSINORO,VIA DEL PIANELLO SNC,FRASSINORO,036016,10.5709487244,44.299814009,10.5709487244 44.299814009,4326                            ,1171,WIND3,STAZIONE RADIO BASE,NON ATTIVO,CONCLUSA,
MO075 DISMESSO,SASSUOLO ZI NORD,C/O CABINA ENEL DI PONTE FOSSA,FIORANO MODENESE,036013,10.819611,44.56425,10.819611 44.56425,4326                            ,"98,5",WIND3,STAZIONE RADIO BASE,NON ATTIVO,CONCLUSA,
MO117,LIMIDI,VIA ARCHIMEDE C/O MAGAZZINO COMUNALE,SOLIERA,036044,10.9098726573,44.766483131,10.9098726573 44.766483131,4326                            ,24,WIND3,STAZIONE RADIO BASE,NON ATTIVO,CONCLUSA,
MO137,FORMIGINE CENTRO OVEST,"VIALE DELLO SPORT, 5  C/O PISCINA COMUNALE",FORMIGINE,036015,10.8402164985,44.5739115223,10.8402164985 44.5739115223,4326                            ,"84,5",WIND3,STAZIONE RADIO BASE,NON ATTIVO,CONCLUSA,
MO194,SALTINO,VIA RIVALTA DI SOPRA - LOC. SALTINO,PRIGNANO SULLA SECCHIA,036033,10.6526225294,44.4230670704,10.6526225294 44.4230670704,4326                            ,410,WIND3,STAZIONE RADIO BASE,NON ATTIVO,CONCLUSA,
MO305,CAVALCANTI,VIA BOCCACCIO,FIORANO MODENESE,036013,10.8187852521,44.5340689773,10.8187852521 44.5340689773,4326                            ,157,WIND3,STAZIONE RADIO BASE,NON ATTIVO,CONCLUSA,
MO355,MARANELLO 1,VIA DINO FERRARI - FINE STRADA -,MARANELLO,036019,10.858263,44.530298,10.858263 44.530298,4326                            ,132,WIND3,STAZIONE RADIO BASE,NON ATTIVO,CONCLUSA,
MO389,SAN CESARIO,"VIA LIBERAZIONE, 187",SAN CESARIO SUL PANARO,036036,11.033833,44.569542,11.033833 44.569542,4326                            ,"48,5",WIND3,STAZIONE RADIO BASE,NON ATTIVO,CONCLUSA,
FLFE,CIVITELLA OVEST,"STRADA COMUNALE PESCAGLIA-MONTACCIO, SNC",CIVITELLA DI ROMAGNA,040009,11.941566,44.004828,11.941566 44.004828,4326                            ,255,TIM,STAZIONE RADIO BASE,NON ATTIVO,ATTIVABILE,GSM900 - LTE800 - LTE1800 - UMTS900 - UMTS2100
MDDC,MEDOLLA ZI,"VIA LEONARDO DA VINCI, SNC",MEDOLLA,036021,11.058593,44.84528,11.058593 44.84528,4326                            ,"20,9",TIM,STAZIONE RADIO BASE,NON ATTIVO,ATTIVABILE,GSM900 - LTE800 - LTE1500 - LTE1800 - LTE2600 - UMTS900 - UMTS2100
PC8A,RIVERGARO EX PC07,C/O CIMITERO,RIVERGARO,033038,9.59961937,44.91746776,9.59961937 44.91746776,4326                            ,"136,1",TIM,STAZIONE RADIO BASE,NON ATTIVO,ATTIVABILE,GSM900 - LTE800 - LTE1800 - UMTS900 - UMTS2100
BO44,SAN LAZZARO DI SAVENA,VIA SPERANZA 8,SAN LAZZARO DI SAVENA,037054,11.413281983288,44.47547733754509,11.413281983288 44.47547733754509,4326                            ,56,TIM,STAZIONE RADIO BASE,NON ATTIVO,ATTIVABILE,5G3700 - GSM900 - LTE800 - LTE1500 - LTE1800 - LTE2600 - UMTS2100
RA91,PORTA SERRATA,"VIA SANT ALBERTO, 1",RAVENNA,039014,12.2019638888889,44.4228583333333,12.2019638888889 44.4228583333333,4326                            ,4,TIM,STAZIONE RADIO BASE,NON ATTIVO,ATTIVABILE,LTE1800 - UMTS2100
PC073,MAMAGO,"VIA MAMAGO ROSO 122, LOC. SAN NICOLO'",ROTTOFRENO,033039,9.602632,45.04874,9.602632 45.04874,4326                            ,66,WIND3,STAZIONE RADIO BASE,NON ATTIVO,ATTIVABILE,GSM900 - GSM1800 - LTE800 - LTE1800 - LTE2600 - UMTS900 - UMTS2100
FC47034_002,FORLIMPOPOLI CIRCONVALLAZIONE,"VIA DIAZ, 5/B C/O ""SERBATOIO HERA DIAZ FORLIMPOPOLI"" (CO-SITING TELECOM E VODAFONE) - FORLIMPOPOLI",FORLIMPOPOLI,040013,12.125277,44.185534,12.125277 44.185534,4326                            ,33,ILIAD,STAZIONE RADIO BASE,ATTIVO,ATTIVA,5G700 - LTE1800 - LTE2600 - UMTS900 - UMTS2100
RE40,ARCETO,"VIA PER RUBIERA, LOC. ARCETO",SCANDIANO,035040,10.7269158869,44.6278410859,10.7269158869 44.6278410859,4326                            ,69,TIM,STAZIONE RADIO BASE,NON ATTIVO,ATTIVABILE,GSM900 - LTE800 - LTE1800 - UMTS900 - UMTS2100
RN47838_007,RICCIONE CASELLO A14,VIALE BERLINGUER C/O CASELLO AUTOSTRADALE A14,RICCIONE,099013,12.6418251,43.9873572,12.6418251 43.9873572,4326                            ,"18,1",ILIAD,STAZIONE RADIO BASE,NON ATTIVO,ATTIVABILE,LTE1800 - LTE2600 - UMTS900 - UMTS2100
FL41,SAN ZENO,"VIA SAN ZENO, LOCALITA PODERE SALAMELLO",GALEATA,040014,11.8781577495,44.011104831,11.8781577495 44.011104831,4326                            ,"518,1",TIM,STAZIONE RADIO BASE,NON ATTIVO,ATTIVABILE,GSM900 - LTE800 - LTE1800 - UMTS900 - UMTS2100
FE44124_004,MARRARA,VIA DEL VESCOVO,FERRARA,038008,11.691704,44.722969,11.691704 44.722969,4326                            ,"5,5",ILIAD,STAZIONE RADIO BASE,ATTIVO,ATTIVA,5G700 - LTE1800 - LTE2600 - UMTS900 - UMTS2100
PC332,SAN LEONARDO,VIA PASSEGGIO PUBBLICO 38,PIACENZA,033032,9.694527,45.045744,9.694527 45.045744,4326                            ,57,WIND3,STAZIONE RADIO BASE,ATTIVO,ATTIVA,GSM900 - LTE800 - LTE1800 - LTE2100 - LTE2600 - UMTS900 - UMTS2100
BB25,BO VIA LIGURIA,VIA ARNO 6,BOLOGNA,037006,11.39001796389365,44.47611165773731,11.39001796389365 44.47611165773731,4326                            ,"65,5",TIM,STAZIONE RADIO BASE,NON ATTIVO,ATTIVABILE,5G3700 - LTE1800 - LTE2100 - LTE2600 - UMTS2100
BO27,BO INTERPORTO,VIA COMASTRI 7,SAN GIORGIO DI PIANO,037052,11.38219268322719,44.62854959336043,11.38219268322719 44.62854959336043,4326                            ,"21,3",TIM,STAZIONE RADIO BASE,NON ATTIVO,ATTIVABILE,5G3700 - GSM900 - LTE800 - LTE1800 - LTE2600 - UMTS2100
RE7D,,VIA CORBELLA,ROLO,035035,10.8595340779,44.8782627351,10.8595340779 44.8782627351,4326                            ,"20,5",TIM,STAZIONE RADIO BASE,NON ATTIVO,ATTIVABILE,GSM900 - LTE800 - LTE1800 - UMTS900 - UMTS2100
MO0125-B,DIAMANTE,VIA MINUTARA. 24,MODENA,036023,10.949021672,44.6413768913,10.949021672 44.6413768913,4326                            ,32,VODAFONE,STAZIONE RADIO BASE,NON ATTIVO,CONCLUSA,GSM900 - LTE800 - LTE1500 - LTE1800 - LTE2600 - UMTS900 - UMTS2100
BB06,BO VIA MAGELLANO,VIA DEL TRIUMVIRATO 22/3,BOLOGNA,037006,11.29288956977018,44.51871218257935,11.29288956977018 44.51871218257935,4326                            ,"40,5",TIM,STAZIONE RADIO BASE,NON ATTIVO,ATTIVABILE,5G3700 - LTE1800 - LTE2600 - UMTS2100
RE42020_004,SAN POLO D'ENZA,VIA REBIGNANA C/O CIMITERO,SAN POLO D'ENZA,035038,10.4301309675,44.6422088464,10.4301309675 44.6422088464,4326                            ,148,ILIAD,STAZIONE RADIO BASE,ATTIVO,ATTIVA,5G700 - LTE1800 - LTE2600 - UMTS900 - UMTS2100
BO676,GRANAROLO CADRIANO,VIA DON MINZONI 54,GRANAROLO DELL'EMILIA,037030,11.392466305,44.5510094718,11.392466305 44.5510094718,4326                            ,32,WIND3,STAZIONE RADIO BASE,NON ATTIVO,ATTIVABILE,GSM900 - LTE800 - LTE1800 - LTE2100 - LTE2600 - UMTS900 - UMTS2100
RN614,RIVABELLA,"VIA CODROIPO, 27",RIMINI,099014,12.553275,44.076221,12.553275 44.076221,4326                            ,"1,8",WIND3,STAZIONE RADIO BASE,ATTIVO,ATTIVA,LTE1800 - LTE2100 - LTE2600 - UMTS2100
FE098,LIDO DEGLI SCACCHI,VIA REPUBBLICHE MARINARE C/O CAMPING FLORENZ,COMACCHIO,038006,12.2362,44.70134,12.2362 44.70134,4326                            ,"1,4",WIND3,STAZIONE RADIO BASE,NON ATTIVO,ATTIVABILE,GSM900 - LTE800 - LTE1800 - LTE2100 - LTE2600 - UMTS900 - UMTS2100
MO03,SASSUOLO,"VIA RADICI IN PIANO,118",SASSUOLO,036040,10.790087336500001,44.5504117757,10.790087336500001 44.5504117757,4326                            ,111,TIM,STAZIONE RADIO BASE,ATTIVO,ATTIVA,GSM900 - GSM1800 - LTE800 - LTE1800 - LTE2100 - LTE2600 - UMTS900 - UMTS2100
PR0D,GROLA,VIA SONNINO,PARMA,034027,10.2985256713,44.8106982018,10.2985256713 44.8106982018,4326                            ,54,TIM,STAZIONE RADIO BASE,NON ATTIVO,ATTIVABILE,LTE1800 - LTE2100 - UMTS2100
PR17,PR NORD/OVEST,"VIA DEI MERCATI,17",PARMA,034027,10.3043343324,44.8170503169,10.3043343324 44.8170503169,4326                            ,49,TIM,STAZIONE RADIO BASE,NON ATTIVO,ATTIVABILE,GSM900 - LTE800 - LTE1800 - LTE2100 - LTE2600 - UMTS900 - UMTS2100
PR44,PR BERNA,VIA DA ERBA EDOARI MARIO,PARMA,034027,10.3611245,44.800792,10.3611245 44.800792,4326                            ,48,TIM,STAZIONE RADIO BASE,NON ATTIVO,ATTIVABILE,GSM900 - GSM1800 - LTE800 - LTE1800 - LTE2100 - UMTS2100
BO10,BO BOLDRINI,VIA BOLDRINI 13,BOLOGNA,037006,11.3392016677472,44.50515204942625,11.3392016677472 44.50515204942625,4326                            ,"42,5",TIM,STAZIONE RADIO BASE,NON ATTIVO,ATTIVABILE,5G3700 - GSM900 - LTE1800 - LTE2600 - UMTS2100
MO082,MO CENTRO STORICO,"VIA FRANCESCO SELMI, 57-59",MODENA,036023,10.924967,44.643506,10.924967 44.643506,4326                            ,35,WIND3,STAZIONE RADIO BASE,NON ATTIVO,ATTIVABILE,LTE1800 - LTE2100 - LTE2600 - UMTS2100
RN615,SAN GIULIANO,VIA ORTIGARA 29,RIMINI,099014,12.5664604,44.0742016,12.5664604 44.0742016,4326                            ,"1,5",WIND3,STAZIONE RADIO BASE,NON ATTIVO,ATTIVABILE,LTE800 - LTE1800 - LTE2100 - LTE2600 - UMTS900 - UMTS2100
FE44121_002,PALESTRO,VIA RENATA DI FRANCIA 3,FERRARA,038008,11.62871111,44.84065555,11.62871111 44.84065555,4326                            ,"5,5",ILIAD,STAZIONE RADIO BASE,NON ATTIVO,CONCLUSA,5G700 - LTE1800 - LTE2600 - UMTS900 - UMTS2100
BO40026_019,SAN PROSPERO A14,VIA SAN PROSPERO 127,IMOLA,037032,11.779032,44.364682,11.779032 44.364682,4326                            ,30,ILIAD,STAZIONE RADIO BASE,NON ATTIVO,CONCLUSA,5G700 - LTE1800 - LTE2100 - LTE2600 - UMTS900 - UMTS2100
BO28,BO RAI,VIALE DELLA FIERA 13,BOLOGNA,037006,11.3696145893930246666666666666666666667,44.507868360918218,11.3696145893930246666666666666666666667 44.507868360918218,4326                            ,"43,4",TIM,STAZIONE RADIO BASE,ATTIVO,ATTIVA,5G3700 - GSM900 - LTE1800 - LTE2100 - LTE2600 - LTE1800-P - UMTS2100
BX11,CASALECCHIO MERIDIANA,VIA GUIDO ROSSA,CASALECCHIO DI RENO,037011,11.26519046218069,44.48853352839331,11.26519046218069 44.48853352839331,4326                            ,57,TIM,STAZIONE RADIO BASE,NON ATTIVO,IN CORSO,5G3700 - GSM900 - LTE800 - LTE1800 - LTE2100 - LTE2600 - UMTS900 - UMTS2100
PCAD,VEZZOLACCA,,VERNASCA,033044,9.7872291,44.7467309,9.7872291 44.7467309,4326                            ,,TIM,STAZIONE RADIO BASE,NON ATTIVO,CONCLUSA,
BO94,BO GRIFFONI,VIA DE' GRIFFONI 8,BOLOGNA,037006,11.33944006825417,44.49211262894187,11.33944006825417 44.49211262894187,4326                            ,"64,7",TIM,STAZIONE RADIO BASE,ATTIVO,ATTIVA,GSM900 - GSM1800 - LTE800 - LTE1800 - LTE2100 - UMTS2100
PC346,MONTICELLI D'ONGINA,LOC. FIENILI,MONTICELLI D'ONGINA,033027,9.9443972,45.0574937,9.9443972 45.0574937,4326                            ,40,WIND3,STAZIONE RADIO BASE,NON ATTIVO,CONCLUSA,LTE1800 - LTE2100 - UMTS2100
PC051,PARADISO                     ,VIA CAVAGLIERI 30,PIACENZA,033032,9.723155,45.038742,9.723155 45.038742,4326                            ,53,WIND3,STAZIONE RADIO BASE,NON ATTIVO,CONCLUSA,GSM1800 - LTE1800 - LTE2100 - LTE2600 - UMTS2100
PC015,ENEL CENTRALE TERMOELETTRICA,VIA DIETE DI RONCAGLIA,PIACENZA,033032,9.711129,45.049136,9.711129 45.049136,4326                            ,"52,6",WIND3,STAZIONE RADIO BASE,NON ATTIVO,CONCLUSA,GSM900 - LTE800 - LTE1800 - LTE2100 - LTE2600 - UMTS900 - UMTS2100
PC074,STADIO RUGBY,VIA RIGOLLI,PIACENZA,033032,9.696944,45.034943,9.696944 45.034943,4326                            ,63,WIND3,STAZIONE RADIO BASE,NON ATTIVO,CONCLUSA,GSM900 - LTE800 - LTE1800 - LTE2100 - LTE2600 - UMTS900 - UMTS2100
PC020,ROTTOFRENO,C/O TORRE ACQUA (VICINO CAMPO SPORTIVO),ROTTOFRENO,033039,9.5463359,45.0552995,9.5463359 45.0552995,4326                            ,62,WIND3,STAZIONE RADIO BASE,NON ATTIVO,CONCLUSA,GSM900 - LTE800 - LTE1800 - LTE2100 - LTE2600 - UMTS900 - UMTS2100
PC318,CORTEMAGGIORE,CIMITERO COMUNALE,CORTEMAGGIORE,033018,9.9335343,45.0019557,9.9335343 45.0019557,4326                            ,"48,8",WIND3,STAZIONE RADIO BASE,NON ATTIVO,CONCLUSA,GSM900 - LTE800 - LTE1800 - LTE2100 - LTE2600 - UMTS900 - UMTS2100
PC29122_005,PIACENZA FIERE,"VIA MENTOVATI, 13/15",PIACENZA,033032,9.731481,45.047537,9.731481 45.047537,4326                            ,50,ILIAD,STAZIONE RADIO BASE,ATTIVO,ATTIVA,5G700 - LTE1800 - LTE2600 - UMTS900 - UMTS2100
FC45066-A,ALFERO SP43,STRADA PROVINCIALE  SP43,VERGHERETO,040050,12.0529068,43.8582994,12.0529068 43.8582994,4326                            ,815,VODAFONE,STAZIONE RADIO BASE,NON ATTIVO,IN CORSO,GSM900 - LTE800 - LTE1800 - LTE2100 - LTE2600 - UMTS900 - UMTS2100
RA10,MARINA DI RAVENNA,"VIA TRIESTE, 440 - MARINA DI RAVENNA",RAVENNA,039014,12.2732555556,44.4864833333,12.2732555556 44.4864833333,4326                            ,"0,6",TIM,STAZIONE RADIO BASE,ATTIVO,ATTIVA,GSM900 - GSM1800 - LTE800 - LTE1800 - LTE2100 - LTE2600 - UMTS900 - UMTS2100
PC29122_003,VIA MANFREDI,VIA MANFREDI 65,PIACENZA,033032,9.683971,45.037506,9.683971 45.037506,4326                            ,"63,5",ILIAD,STAZIONE RADIO BASE,NON ATTIVO,CONCLUSA,5G700 - LTE1800 - LTE2100 - LTE2600 - UMTS900
RA77,BELLOCCHIO,STRADA STATALE 309 - ROMEA - BELLOCCHIO,RAVENNA,039014,12.2448527777778,44.6031416666667,12.2448527777778 44.6031416666667,4326                            ,1,TIM,STAZIONE RADIO BASE,ATTIVO,ATTIVA,GSM900 - LTE800 - LTE1800 - LTE2100 - LTE2600 - UMTS900 - UMTS2100
BB9B,SAN LAZZARO BELLARIA,VIA CROARA C/O PARCHEGGIO CENTRO CIVICO BELLARIA,SAN LAZZARO DI SAVENA,037054,11.39888417722217,44.46526736977889,11.39888417722217 44.46526736977889,4326                            ,81,TIM,STAZIONE RADIO BASE,ATTIVO,ATTIVA,GSM900 - LTE1800 - LTE2100 - LTE2600 - UMTS2100
PC2312-A,SANT'AGATA,"LOCALITA CONVIDA SNC, C/O DEPURATORE COMUNALE",SAN GIORGIO PIACENTINO,033040,9.749068,44.9653141,9.749068 44.9653141,4326                            ,90,VODAFONE,STAZIONE RADIO BASE,NON ATTIVO,IN CORSO,GSM900 - LTE800 - LTE1800 - LTE2100
PC1498-B,GRAGNANO TREBBIENSE,LOC. LOGGIA FOGLIO MAPPALE 3/B,GRAGNANO TREBBIENSE,033024,9.5634100368,45.0156089952,9.5634100368 45.0156089952,4326                            ,"78,5",VODAFONE,STAZIONE RADIO BASE,NON ATTIVO,CONCLUSA,GSM900 - LTE800 - LTE1800 - LTE2100 - UMTS900
FE44034_006,COPPARO CAMPO SPORTIVO,VIA DELLO SPORT,COPPARO,038007,11.824502,44.885097,11.824502 44.885097,4326                            ,2,ILIAD,STAZIONE RADIO BASE,ATTIVO,ATTIVA,5G700 - LTE1800 - LTE2100 - LTE2600 - UMTS900 - UMTS2100
BO78,BO DALLARA,VIA ANDREA COSTA 174,BOLOGNA,037006,11.31067292651728,44.49330122242106,11.31067292651728 44.49330122242106,4326                            ,"59,3",TIM,STAZIONE RADIO BASE,ATTIVO,ATTIVA,GSM900 - LTE800 - LTE1500 - LTE1800 - LTE2100 - LTE2600 - UMTS2100
RA044,TAGLIATA DI CERVIA,"VIALE ITALIA, 352 - TAGLIATA DI CERVIA",CERVIA,039007,12.3801833333333,44.2261027777778,12.3801833333333 44.2261027777778,4326                            ,"1,8",WIND3,STAZIONE RADIO BASE,NON ATTIVO,CONCLUSA,GSM900 - LTE800 - LTE1800 - LTE2100 - LTE2600 - UMTS900 - UMTS2100
RA48027_001,SOLAROLO,"VIA PRATICELLI, 1",SOLAROLO,039018,11.8327,44.3512638889,11.8327 44.3512638889,4326                            ,24,ILIAD,STAZIONE RADIO BASE,ATTIVO,ATTIVA,5G700 - LTE1800 - LTE2100 - LTE2600 - UMTS900 - UMTS2100
MO41017_001,RAVARINO ZI,"VIA MAESTRA, 172 C/O CAMPO SPORTIVO COMUNALE",RAVARINO,036034,11.093374,44.722359,11.093374 44.722359,4326                            ,"23,3",ILIAD,STAZIONE RADIO BASE,ATTIVO,ATTIVA,5G700 - LTE1800 - LTE2100 - LTE2600 - UMTS900
BX89,BO VIA DELLE FONTI,VIA DELL'ARCOVEGGIO 192,BOLOGNA,037006,11.35256098403515,44.54592796663383,11.35256098403515 44.54592796663383,4326                            ,"22,8",TIM,STAZIONE RADIO BASE,NON ATTIVO,IN CORSO,5G3700 - GSM900 - LTE800 - LTE1800 - LTE2100 - LTE2600 - LTE1800-P - UMTS2100
FE44123_001,BORGO PUNTA,VIA DEI CALZOLAI 4,FERRARA,038008,11.63990833,44.84567222,11.63990833 44.84567222,4326                            ,"4,5",ILIAD,STAZIONE RADIO BASE,ATTIVO,ATTIVA,5G700 - LTE1800 - LTE2100 - LTE2600 - UMTS900 - UMTS2100
BO40026_006,IMOLA RUGBY,VIA SALVO D'ACQUISTO C/O CENTRO SPORTIVO BACCHILEGA,IMOLA,037032,11.69578872194087,44.34991203914041,11.69578872194087 44.34991203914041,4326                            ,50,ILIAD,STAZIONE RADIO BASE,NON ATTIVO,ATTIVABILE,LTE1800 - LTE2100 - LTE2600 - UMTS900
BO40062_005,MOLINELLA EST,VIA SPADONA,MOLINELLA,037039,11.6831357576,44.6223853706,11.6831357576 44.6223853706,4326                            ,"6,6",ILIAD,STAZIONE RADIO BASE,NON ATTIVO,ATTIVABILE,LTE1800 - LTE2100 - LTE2600 - UMTS900
BO40131_009,NOCE TAV,VIA ZANARDI 419,BOLOGNA,037006,11.32186392561719,44.5368569165882,11.32186392561719 44.5368569165882,4326                            ,"33,1",ILIAD,STAZIONE RADIO BASE,NON ATTIVO,ATTIVABILE,LTE1800 - LTE2100 - LTE2600 - UMTS900
BO40138_004,RIMESSE,VIA RIMESSE  C/O TRE STELLE 4,BOLOGNA,037006,11.37181911331052,44.49440339440001,11.37181911331052 44.49440339440001,4326                            ,"51,3",ILIAD,STAZIONE RADIO BASE,NON ATTIVO,ATTIVABILE,LTE1800 - LTE2100 - LTE2600 - UMTS900
BO40010_001,BENTIVOGLIO SANTA MARIA,VIA ARGINE DEL CANALE NAVILE,BENTIVOGLIO,037005,11.41222658898155,44.62804915050676,11.41222658898155 44.62804915050676,4326                            ,15,ILIAD,STAZIONE RADIO BASE,NON ATTIVO,IN CORSO,5G700 - LTE1800 - LTE2100 - LTE2600 - UMTS900
BO40024_001,CASTEL SAN PIETRO TERME A14,VIA POGGIO LOCALITA' POGGIO GRANDE 1,CASTEL SAN PIETRO TERME,037020,11.5951247983075,44.42128642560495,11.5951247983075 44.42128642560495,4326                            ,54,ILIAD,STAZIONE RADIO BASE,NON ATTIVO,ATTIVABILE,5G700 - LTE1800 - LTE2100 - LTE2600 - UMTS900
PR41,ORIANO,LOC. SELVA DEL BOCCHETTO,TERENZO,034038,10.0135003,44.6269676,10.0135003 44.6269676,4326                            ,292,TIM,STAZIONE RADIO BASE,NON ATTIVO,ATTIVABILE,GSM900 - LTE800 - LTE1800 - UMTS900 - UMTS2100
RN47922_008,VISERBELLA NORD,VIALE PORTO PALOS 33,RIMINI,099014,12.527817,44.095567,12.527817 44.095567,4326                            ,1,ILIAD,STAZIONE RADIO BASE,NON ATTIVO,IN CORSO,5G700 - LTE1800 - LTE2100 - LTE2600 - UMTS900
FE150,ANITA,"VIA MADONNA DEL BOSCO,3",ARGENTA,038001,12.076222,44.561583,12.076222 44.561583,4326                            ,2,WIND3,STAZIONE RADIO BASE,NON ATTIVO,IN CORSO,LTE800 - LTE1800 - LTE2100 - LTE2600 - UMTS900 - UMTS2100
MO400,,"VIA EMILIA EST, 1465",MODENA,036023,10.972624,44.628526,10.972624 44.628526,4326                            ,"33,7",WIND3,STAZIONE RADIO BASE,NON ATTIVO,ATTIVABILE,LTE800 - LTE1800 - LTE2100 - LTE2600 - UMTS900 - UMTS2100
RA3065,FS - CAMERLONA,CARRAIA NIKER - PRESSO PL KM 66 + 821 - CAMERLONA,RAVENNA,039014,12.1409083333,44.4434277778,12.1409083333 44.4434277778,4326                            ,3,VODAFONE,STAZIONE RADIO BASE,NON ATTIVO,ATTIVABILE,GSM900 - LTE800 - LTE1800 - LTE2100 - UMTS900 - UMTS2100
BO113,CORTICELLA BIS,VIA DELL'ARCOVEGGIO 49/5,BOLOGNA,037006,11.3475069983712533333333333333333333333,44.53045521798696,11.3475069983712533333333333333333333333 44.53045521798696,4326                            ,"32,9",WIND3,STAZIONE RADIO BASE,NON ATTIVO,CONCLUSA,5G3700 - GSM900 - LTE800 - LTE1800 - LTE2100 - LTE2600 - LTE2600-TDD - UMTS900 - UMTS2100
PR43124_001,,VIA MONTANARA C/O PARCHEGGIO COMUNALE,PARMA,034027,10.311885,44.779611,10.311885 44.779611,4326                            ,69,ILIAD,STAZIONE RADIO BASE,NON ATTIVO,CONCLUSA,
2 BO 6262 A,LARGA,VIA LARGA 23,BOLOGNA,037006,11.39564441558617,44.49730271792507,11.39564441558617 44.49730271792507,4326                            ,"51,7",VODAFONE,STAZIONE RADIO BASE,NON ATTIVO,IN CORSO,5G3700 - GSM900 - LTE800 - LTE1800 - LTE2100 - UMTS2100
FE44030_002,RO,VIA CASTELLO ZOCCA,RIVA DEL PO,038029,11.752141,44.933993,11.752141 44.933993,4326                            ,"3,6",ILIAD,STAZIONE RADIO BASE,ATTIVO,ATTIVA,5G700 - LTE1800 - LTE2100 - LTE2600 - UMTS900 - UMTS2100
2RN-5006,FS SCALO,"VIALE TRIPOLI, 189",RIMINI,099014,12.5825322,44.0571952,12.5825322 44.0571952,4326                            ,4,VODAFONE,STAZIONE RADIO BASE,NON ATTIVO,IN CORSO,5G3700 - GSM900 - LTE800 - LTE1800 - LTE2100 - UMTS900 - UMTS2100
BO4508A,TAVERNELLE,VIA VERDE LOCALITA' TAVERNELLE 6,CALDERARA DI RENO,037009,11.24352313026535,44.5808011969362,11.24352313026535 44.5808011969362,4326                            ,26,VODAFONE,STAZIONE RADIO BASE,NON ATTIVO,CONCLUSA,GSM900 - LTE800 - LTE1800 - LTE2100 - UMTS2100
MO1631-A,CASINALBO,STRADA CADIANE CASINALBO,MODENA,036023,10.9054227024,44.6045021811,10.9054227024 44.6045021811,4326                            ,45,VODAFONE,STAZIONE RADIO BASE,NON ATTIVO,CONCLUSA,5G3700 - GSM900 - LTE1800 - LTE2100 - UMTS900 - UMTS2100
FE1791,PALMIRANO,VIA PALMIRANO,FERRARA,038008,11.681309,44.775294,11.681309 44.775294,4326                            ,"2,9",VODAFONE,STAZIONE RADIO BASE,NON ATTIVO,CONCLUSA,GSM900 - LTE800 - LTE1800 - LTE2100 - UMTS900 - UMTS2100
FO162,CESENATICO BORELLA BIS,VIA BRUSADICCIA SNC,CESENATICO,040008,12.378528,44.190833,12.378528 44.190833,4326                            ,"3,3",WIND3,STAZIONE RADIO BASE,NON ATTIVO,IN CORSO,LTE800 - LTE1800 - LTE2100 - LTE2600 - UMTS900 - UMTS2100
RA151,MARZENO,VIA FENIGARA SNC,BRISIGHELLA,039004,11.864306,44.219778,11.864306 44.219778,4326                            ,87,WIND3,STAZIONE RADIO BASE,NON ATTIVO,IN CORSO,LTE800 - LTE1800 - LTE2100 - LTE2600 - UMTS900 - UMTS2100
2 BO 1513 A,S. VITALE,VIALE LENIN 63,BOLOGNA,037006,11.391411233206041,44.490680926198788,11.391411233206041 44.490680926198788,4326                            ,"54,8",VODAFONE,STAZIONE RADIO BASE,NON ATTIVO,CONCLUSA,5G3700 - GSM900 - LTE800 - LTE1800 - LTE2100 - LTE2600 - UMTS900 - UMTS2100
RN020,VISERBA,"VIA DATI, 9",RIMINI,099014,12.5424385,44.0854696,12.5424385 44.0854696,4326                            ,"0,95",WIND3,STAZIONE RADIO BASE,NON ATTIVO,IN CORSO,GSM900 - LTE800 - LTE1800 - LTE2100 - LTE2600 - UMTS900 - UMTS2100
2RM03641,VICOFERTILE,STRADA BERGONZI 54 LOC. VICOFERTILE,PARMA,034027,10.2593797,44.7804947,10.2593797 44.7804947,4326                            ,78,VODAFONE,STAZIONE RADIO BASE,NON ATTIVO,ATTIVABILE,GSM900 - LTE800 - LTE1800 - LTE2100 - UMTS900 - UMTS2100
2RN-4988,POGGIO BERNI,VIA CUPA - LOC. CORPOLO,RIMINI,099014,12.4553633,44.0267165,12.4553633 44.0267165,4326                            ,56,VODAFONE,STAZIONE RADIO BASE,NON ATTIVO,IN CORSO,GSM900 - LTE800 - LTE1800 - LTE2100 - UMTS900
MO41012_006,CARPI STADIO,"VIA CARLO MARX, 26 ( C/O STADIO COMUNALE S: CABASSI )",CARPI,036005,10.881012,44.77536,10.881012 44.77536,4326                            ,26,ILIAD,STAZIONE RADIO BASE,NON ATTIVO,ATTIVABILE,LTE1800 - LTE2100 - LTE2600 - UMTS900
MO41013_001,CASTELFRANCO ZI,INDIRIZZO VIA CANALE C/O DEPURATORE COMUNALE,CASTELFRANCO EMILIA,036006,11.070168,44.595423,11.070168 44.595423,4326                            ,"37,5",ILIAD,STAZIONE RADIO BASE,NON ATTIVO,ATTIVABILE,5G700 - LTE1800 - LTE2100 - LTE2600 - UMTS900
MO41049_003,,SVINCOLO VIA MURAGLIE/VIA PALESTRO,SASSUOLO,036040,10.773863585099999,44.5451557131,10.773863585099999 44.5451557131,4326                            ,115,ILIAD,STAZIONE RADIO BASE,NON ATTIVO,ATTIVABILE,LTE1800 - LTE2100 - LTE2600 - UMTS900
MO41126_003,STRADA CONTRADA,STRADA CONTRADA 391,MODENA,036023,10.932723,44.612391,10.932723 44.612391,4326                            ,38,ILIAD,STAZIONE RADIO BASE,NON ATTIVO,ATTIVABILE,LTE1800 - LTE2100 - LTE2600 - UMTS900
2RN0671B,RICCIONE TERME,"VIA MICHELANGELO, 25 C/O HOTEL NASCENTE",RICCIONE,099013,12.6730245,43.9910006,12.6730245 43.9910006,4326                            ,"2,8",VODAFONE,STAZIONE RADIO BASE,NON ATTIVO,IN CORSO,LTE1800 - LTE2100 - UMTS2100
2 BO 6262 A,LARGA,VIA LARGA 23,BOLOGNA,037006,11.39564441558617,44.49730271792507,11.39564441558617 44.49730271792507,4326                            ,"51,7",VODAFONE,STAZIONE RADIO BASE,NON ATTIVO,IN CORSO,5G3700 - GSM900 - LTE800 - LTE1800 - LTE2100 - UMTS2100
RA48024_002,MASSA OVEST,"VIA ARGINE SAN PAOLO, 4",MASSA LOMBARDA,039013,11.8107694444,44.4532111111,11.8107694444 44.4532111111,4326                            ,"8,8",ILIAD,STAZIONE RADIO BASE,NON ATTIVO,ATTIVABILE,5G700 - LTE1800 - LTE2100 - LTE2600 - UMTS900
RN47923_005,PALACONGRESSI,VIA DELLA FIERA 23,RIMINI,099014,12.566702,44.050339,12.566702 44.050339,4326                            ,8,ILIAD,STAZIONE RADIO BASE,NON ATTIVO,CONCLUSA,5G700 - LTE1800 - LTE2100 - LTE2600 - UMTS900
FE49840-P,LIDO DI POMPOSA,VIA DOLOMITI,COMACCHIO,038006,12.234431,44.719619,12.234431 44.719619,4326                            ,"0,8",VODAFONE,STAZIONE RADIO BASE,NON ATTIVO,IN CORSO,GSM900 - LTE800 - LTE1800 - LTE2100 - LTE2600 - UMTS900
RE4739-A,SAN MARTINO IN RIO,"VIA MALAGUZZI, 54",SAN MARTINO IN RIO,035037,10.784486537,44.7296602232,10.784486537 44.7296602232,4326                            ,"35,3",VODAFONE,STAZIONE RADIO BASE,NON ATTIVO,IN CORSO,GSM900 - LTE800 - LTE1800 - LTE2100 - UMTS900 - UMTS2100
RE1416-A,SSI-FELINA,VIA CROCE,CASTELNOVO NE' MONTI,035016,10.4340712301,44.4426501125,10.4340712301 44.4426501125,4326                            ,"718,5",VODAFONE,STAZIONE RADIO BASE,NON ATTIVO,IN CORSO,GSM900 - LTE800 - LTE2100 - UMTS900
MO2453-B,CASTELVETRO,VIA MIGLIORARA,CASTELVETRO DI MODENA,036008,10.9525538224,44.4951201916,10.9525538224 44.4951201916,4326                            ,165,VODAFONE,STAZIONE RADIO BASE,NON ATTIVO,IN CORSO,GSM900 - LTE800 - LTE1800 - LTE2100 - UMTS900 - UMTS2100
PC29010_026,VILLANOVA SULL'ARDA,VIA LANCA C/O AREA ECOLOGICA,VILLANOVA SULL'ARDA,033046,10.004382,45.024536,10.004382 45.024536,4326                            ,38,ILIAD,STAZIONE RADIO BASE,NON ATTIVO,ATTIVABILE,5G700 - LTE1800 - LTE2100 - LTE2600 - UMTS900 - UMTS2100
PR87,PR BRUNAZZI,"STRADA COMUNALE BATTIBUE,SNC",PARMA,034027,10.283307084,44.8263986605,10.283307084 44.8263986605,4326                            ,46,TIM,STAZIONE RADIO BASE,NON ATTIVO,ATTIVABILE,5G3700 - GSM900 - LTE800 - LTE1800 - LTE2100 - LTE2600 - UMTS2100
PR43123_007,MOLINO NUOVO,"STRADA ARGINI, 107",PARMA,034027,10.33257222,44.76675277,10.33257222 44.76675277,4326                            ,77,ILIAD,STAZIONE RADIO BASE,ATTIVO,ATTIVA,5G700 - LTE1800 - LTE2100 - LTE2600 - UMTS900
BO134,ALTEDO,VIA DEL LAVORO,MALALBERGO,037035,11.49031423463233,44.67630361909065,11.49031423463233 44.67630361909065,4326                            ,"10,8",WIND3,STAZIONE RADIO BASE,ATTIVO,ATTIVA,GSM900 - LTE800 - LTE1800 - LTE2100 - LTE2600 - UMTS900 - UMTS2100
FE009,V.LE CAVOUR,VIA DARSENA (C/O PARCHEGGIO KENNEDY),FERRARA,038008,11.611364,44.833101,11.611364 44.833101,4326                            ,"8,4",WIND3,STAZIONE RADIO BASE,NON ATTIVO,IN CORSO,5G3700 - GSM900 - LTE800 - LTE1800 - LTE2100 - LTE2600 - LTE2600-TDD - UMTS900 - UMTS2100
BO297,SAN MAMOLO RIZZOLI,VIA SAN VITTORE,BOLOGNA,037006,11.3389227307487,44.47532297905649,11.3389227307487 44.47532297905649,4326                            ,146,WIND3,STAZIONE RADIO BASE,ATTIVO,ATTIVA,5G3700 - GSM900 - LTE800 - LTE1800 - LTE2100 - LTE2600 - LTE2600-TDD - UMTS900 - UMTS2100
BO40026_017,IMOLA ORTODONICO A14,VIA MOLINO ROSSO 21,IMOLA,037032,11.71677,44.385733,11.71677 44.385733,4326                            ,34,ILIAD,STAZIONE RADIO BASE,NON ATTIVO,IN CORSO,LTE1800 - LTE2100 - LTE2600 - UMTS900
PC3664-A,CORTEMAGGIORE,STRADA PER BESENZONE 26/A C/O AZIENDA RDB,CORTEMAGGIORE,033018,9.9363774,44.9920966,9.9363774 44.9920966,4326                            ,53,VODAFONE,STAZIONE RADIO BASE,NON ATTIVO,IN CORSO,GSM900 - LTE800 - LTE1800 - LTE2100 - UMTS900
MO41026_002,PAVULLO NEL FRIGNANO SUD,STRADA VICINALE DELLA SERRA ANGOLO VIA TORBA,PAVULLO NEL FRIGNANO,036030,10.842328,44.321773,10.842328 44.321773,4326                            ,679,ILIAD,STAZIONE RADIO BASE,ATTIVO,ATTIVA,5G700 - LTE1800 - LTE2100 - LTE2600 - UMTS900
RE167,CADE',VIA ANDREA PALLADIO C/O AREA CIMITERO,REGGIO NELL'EMILIA,035033,10.5138888889,44.74025,10.5138888889 44.74025,4326                            ,48,WIND3,STAZIONE RADIO BASE,NON ATTIVO,CONCLUSA,
PS345,CAMPI SPORTIVI,"VIA DEL CARDELLINO, SNC C/O CENTRALE ENEL",GABICCE MARE,041019,12.7524722222,43.9548611111,12.7524722222 43.9548611111,4326                            ,10,WIND3,STAZIONE RADIO BASE,NON ATTIVO,CONCLUSA,
FO073,SAN MAURO PASCOLI ,"VIA VILLAGRAPPA, 72 C/O DEPOSITO COMUNALE",SAN MAURO PASCOLI,040041,12.412752,44.11508,12.412752 44.11508,4326                            ,14,WIND3,STAZIONE RADIO BASE,NON ATTIVO,IN CORSO,GSM900 - GSM1800 - LTE1800 - LTE2100 - LTE2600 - UMTS900 - UMTS2100
MO111,VILLANOVA-LESIGNANA,"VIA VILLANOVA,353",MODENA,036023,10.9111032132,44.6876948954,10.9111032132 44.6876948954,4326                            ,31,WIND3,STAZIONE RADIO BASE,ATTIVO,ATTIVA,GSM900 - LTE800 - LTE1800 - LTE2100 - UMTS900 - UMTS2100
MO031,MODENA EST,VIA DEGLI SCARLATTI 63 -SABIM -,MODENA,036023,10.9647779487,44.6318975028,10.9647779487 44.6318975028,4326                            ,33,WIND3,STAZIONE RADIO BASE,ATTIVO,ATTIVA,GSM900 - LTE800 - LTE1800 - LTE2100 - LTE2600 - UMTS900 - UMTS2100
MO046,SERRAMAZZONI,"P.ZZA TASSO, 7 - C/O EDIFICIO COMUNALE",SERRAMAZZONI,036042,10.790047,44.421276,10.790047 44.421276,4326                            ,796,WIND3,STAZIONE RADIO BASE,ATTIVO,ATTIVA,GSM900 - LTE800 - LTE1800 - LTE2100 - UMTS900 - UMTS2100
PC064,RIGLIO SS587,"VIA GAMBOLINO N, 2 - LOC. CHIAVENNA LANDI",CAORSO,033010,9.8364168,45.0220365,9.8364168 45.0220365,4326                            ,"51,3",WIND3,STAZIONE RADIO BASE,ATTIVO,ATTIVA,GSM1800 - LTE1800 - LTE2100 - UMTS2100
PC349,CASTELVETRO PIACENTINO INDUSTRIALE,AREA INDUSTRIALE,CASTELVETRO PIACENTINO,033014,9.9967754,45.1119897,9.9967754 45.1119897,4326                            ,"38,5",WIND3,STAZIONE RADIO BASE,NON ATTIVO,CONCLUSA,LTE1800 - LTE2100 - UMTS2100
PC054,OTTONE-ZERBA,"LOC. MONTE ALFEO, C/O TRALICCIO TOWERNET ",OTTONE,033030,9.302381,44.632315,9.302381 44.632315,4326                            ,1207,WIND3,STAZIONE RADIO BASE,ATTIVO,ATTIVA,GSM900 - LTE800 - LTE1800 - LTE2100 - UMTS900 - UMTS2100
PC025,BAZZARI,"STRADA COMUNALE NUOVA CASELLA - LAZZARELLO, LOC. COSTALTA (COSTA DELLE FRACCE)",PECORARA,033031,9.358293,44.873579,9.358293 44.873579,4326                            ,670,WIND3,STAZIONE RADIO BASE,ATTIVO,ATTIVA,GSM900 - LTE800 - LTE1800 - LTE2100 - LTE2600 - UMTS900 - UMTS2100
PC036,VIA EMILIA PAVESE,VIA BOTTINI,PIACENZA,033032,9.655728,45.054344,9.655728 45.054344,4326                            ,56,WIND3,STAZIONE RADIO BASE,ATTIVO,ATTIVA,GSM900 - LTE800 - LTE1800 - LTE2100 - LTE2600 - UMTS900 - UMTS2100
RE039,CASALGRANDE,"VIA DELLA RIPA, 73 - C/O CABINA ENEL DI CASALGRANDE",CASALGRANDE,035012,10.7504326863,44.5773225073,10.7504326863 44.5773225073,4326                            ,108,WIND3,STAZIONE RADIO BASE,ATTIVO,ATTIVA,GSM900 - LTE800 - LTE1800 - LTE2100 - LTE2600 - UMTS900 - UMTS2100
RE391,CAVRIAGO SUD,"STRADA PROVINCIALE 28 REGGIO EMILIA - MONTECCHIO, C/O PARCO RIOVALLE",CAVRIAGO,035017,10.5315561755,44.6875597138,10.5315561755 44.6875597138,4326                            ,"84,8",WIND3,STAZIONE RADIO BASE,ATTIVO,ATTIVA,LTE1800 - LTE2100 - LTE2600 - UMTS2100
RE365 (ex H3G RE5906-B),MAGATI,VIA CABOTO,REGGIO NELL'EMILIA,035033,10.6213103,44.6840428,10.6213103 44.6840428,4326                            ,"65,5",WIND3,STAZIONE RADIO BASE,ATTIVO,ATTIVA,LTE1800 - LTE2100 - LTE2600 - UMTS2100
RE091,FOGLIANO-BOSCO,VIA LODOLA 5,REGGIO NELL'EMILIA,035033,10.6590031085,44.6427389263,10.6590031085 44.6427389263,4326                            ,47,WIND3,STAZIONE RADIO BASE,ATTIVO,ATTIVA,GSM900 - LTE800 - LTE1800 - LTE2100 - UMTS900 - UMTS2100
RE017,MARTIRI DI CERVAROLO,"VIA MONTI, CABINA ENEL",REGGIO NELL'EMILIA,035033,10.6458586,44.668798,10.6458586 44.668798,4326                            ,59,WIND3,STAZIONE RADIO BASE,ATTIVO,ATTIVA,GSM900 - LTE800 - LTE1800 - LTE2100 - LTE2600 - UMTS900 - UMTS2100
RE090,CALERNO,VIA MASCAGNI - FUORI AREA ENEL,SANT'ILARIO D'ENZA,035039,10.4785593172,44.7491080417,10.4785593172 44.7491080417,4326                            ,50,WIND3,STAZIONE RADIO BASE,ATTIVO,ATTIVA,GSM900 - LTE800 - LTE1800 - LTE2100 - LTE2600 - UMTS900 - UMTS2100
RE136,BRUGNETO VILLAROTTA,VIALE LAZZARO SPALLANZANI SNC,REGGIOLO,035032,10.7591670317,44.926002635,10.7591670317 44.926002635,4326                            ,18,WIND3,STAZIONE RADIO BASE,ATTIVO,ATTIVA,GSM900 - GSM1800 - LTE800 - LTE1800 - LTE2100 - UMTS900 - UMTS2100
PC340,ALSENO,CATASTO FG. 73 PART. MAPP. 10,BUSSETO,034007,10.0005198,44.9184584,10.0005198 44.9184584,4326                            ,54,WIND3,STAZIONE RADIO BASE,ATTIVO,ATTIVA,LTE1800 - LTE2100 - UMTS2100
RE139,ASTA,PALO TIM PRESSO VIA SERRAVALLE-LOC. CASE BALOCCHI,VILLA MINOZZO,035045,10.4619464074,44.2905310468,10.4619464074 44.2905310468,4326                            ,1107,WIND3,STAZIONE RADIO BASE,ATTIVO,ATTIVA,GSM900 - LTE800 - LTE1800 - LTE2100 - UMTS900 - UMTS2100
RE306,ROLO,VIA PERTINI C/O CIMITERO,ROLO,035035,10.849013,44.882389,10.849013 44.882389,4326                            ,18,WIND3,STAZIONE RADIO BASE,ATTIVO,ATTIVA,GSM900 - LTE800 - LTE1800 - LTE2100 - LTE2600 - UMTS900 - UMTS2100
MO150,CASTELFRANCO SUD,STRADA PROVINCIALE 14 - C/O TORRE PIEZOMENTRICA,CASTELFRANCO EMILIA,036006,11.045973,44.588776,11.045973 44.588776,4326                            ,40,WIND3,STAZIONE RADIO BASE,ATTIVO,ATTIVA,GSM900 - LTE800 - LTE1800 - LTE2100 - LTE2600 - UMTS900 - UMTS2100
PR132,MEZZANO INFERIORE,"VIA CANTARANA, 7",MEZZANI,034021,10.4565597,44.9101198,10.4565597 44.9101198,4326                            ,26,WIND3,STAZIONE RADIO BASE,ATTIVO,ATTIVA,GSM900 - LTE800 - LTE1800 - LTE2100 - LTE2600 - UMTS900 - UMTS2100
PR348,BUFFOLARA,"VIA BUFFOLARA,60",PARMA,034027,10.309093,44.811466,10.309093 44.811466,4326                            ,53,WIND3,STAZIONE RADIO BASE,ATTIVO,ATTIVA,LTE800 - LTE1800 - LTE2100 - LTE2600 - UMTS900 - UMTS2100
RE346 (ex RE5512-C),SAN PELLEGRINO,VIA CHE GUEVARA 2,REGGIO NELL'EMILIA,035033,10.6344485,44.680973,10.6344485 44.680973,4326                            ,"62,5",WIND3,STAZIONE RADIO BASE,ATTIVO,ATTIVA,LTE800 - LTE1800 - LTE2100 - LTE2600 - UMTS900 - UMTS2100
RE128,MONTECCHIO EMILIA CENTRO,"VIA CONTI, 1 1",MONTECCHIO EMILIA,035027,10.4450025973,44.6987348747,10.4450025973 44.6987348747,4326                            ,97,WIND3,STAZIONE RADIO BASE,ATTIVO,ATTIVA,GSM900 - LTE800 - LTE1800 - LTE2100 - LTE2600 - UMTS900 - UMTS2100
MO010,SPILAMBERTO,VIA SARDEGNA,SPILAMBERTO,036045,11.019486,44.524981,11.019486 44.524981,4326                            ,"74,8",WIND3,STAZIONE RADIO BASE,NON ATTIVO,CONCLUSA,GSM900 - LTE800 - LTE1800 - LTE2100 - LTE2600 - UMTS900 - UMTS2100
MO118,SAN PROSPERO CENTRO,VIA SAN GEMIGNANO,SAN PROSPERO,036039,11.027201,44.786448,11.027201 44.786448,4326                            ,"22,2",WIND3,STAZIONE RADIO BASE,ATTIVO,ATTIVA,GSM900 - LTE800 - LTE1800 - LTE2100 - LTE2600 - UMTS900 - UMTS2100
MO147,VIGNOLA SUD,VIA DEL MONTE C/O CENTRALE HERA,VIGNOLA,036046,10.9841237455,44.4766069857,10.9841237455 44.4766069857,4326                            ,182,WIND3,STAZIONE RADIO BASE,ATTIVO,ATTIVA,GSM900 - LTE800 - LTE1800 - LTE2100 - LTE2600 - UMTS900 - UMTS2100
MO178,FINALE EMILIA NORD,VIA CASSETTI 32/A,FINALE EMILIA,036012,11.287005,44.836627,11.287005 44.836627,4326                            ,11,WIND3,STAZIONE RADIO BASE,ATTIVO,ATTIVA,GSM900 - LTE800 - LTE1800 - LTE2100 - LTE2600 - UMTS900 - UMTS2100
MO198,IL POGGIO,S.S.12 DELL'ABETONE S.N.C,MARANELLO,036019,10.8580702856,44.4871371451,10.8580702856 44.4871371451,4326                            ,202,WIND3,STAZIONE RADIO BASE,ATTIVO,ATTIVA,GSM900 - LTE800 - LTE1800 - LTE2100 - UMTS900 - UMTS2100
MO204,SAN VITO,"VIA SETTECANI CAVIDOLE, PRESSO PARCHEGGIO TRATTORIA ""DA GUIDO"", SAN VITO DI SPILAMBERTO",SPILAMBERTO,036045,10.9708562266,44.5574615409,10.9708562266 44.5574615409,4326                            ,57,WIND3,STAZIONE RADIO BASE,ATTIVO,ATTIVA,GSM900 - LTE800 - LTE1800 - LTE2100 - LTE2600 - UMTS900 - UMTS2100
MO320,QUATTROPONTI,ROTONDA DI VIA VERRAZZANO/VIA CIRCONVALLAZIONE NORD-EST,SASSUOLO,036040,10.797369,44.550211,10.797369 44.550211,4326                            ,"112,5",WIND3,STAZIONE RADIO BASE,NON ATTIVO,CONCLUSA,GSM900 - LTE800 - LTE1800 - LTE2100 - LTE2600 - UMTS900 - UMTS2100
2 BO 4576 A,MONTE SAN GIOVANNI,VIA SAN CHIERLO 7,MONTE SAN PIETRO,037042,11.1385239621,44.4075269317,11.1385239621 44.4075269317,4326                            ,311,VODAFONE,STAZIONE RADIO BASE,NON ATTIVO,IN CORSO,GSM900 - GSM1800 - LTE800 - LTE1800 - LTE2100 - UMTS900
BO753,RACCORDO BORGO PANIGALE,VIA DEL VIVAIO,BOLOGNA,037006,11.24858306474533,44.53097136466886,11.24858306474533 44.53097136466886,4326                            ,41,WIND3,STAZIONE RADIO BASE,ATTIVO,ATTIVA,LTE800 - LTE1800 - LTE2100 - UMTS900 - UMTS2100
BO256,RIOVEGGIO FS,S.P. 61 DEPOSITO POSTO NEVE LOC. LE PIANE KM 222+764 CASELLO AUTOSTRADA A1,MONZUNO,037044,11.20265477434335,44.2770962244313,11.20265477434335 44.2770962244313,4326                            ,279,WIND3,STAZIONE RADIO BASE,ATTIVO,ATTIVA,GSM900 - LTE800 - LTE1800 - LTE2100 - LTE2600 - UMTS900 - UMTS2100
BO137,BARICELLA,VIA SAVENA VECCHIA C/O PARCHEGGIO CIMITERO COMUNALE,BARICELLA,037003,11.53778458765682,44.64923277508017,11.53778458765682 44.64923277508017,4326                            ,13,WIND3,STAZIONE RADIO BASE,ATTIVO,ATTIVA,GSM900 - LTE800 - LTE1800 - LTE2100 - LTE2600 - UMTS900 - UMTS2100
BO665,ANZOLA 2,VIA A.MASI  SNC,ANZOLA DELL'EMILIA,037001,11.20504680435488,44.54350598775567,11.20504680435488 44.54350598775567,4326                            ,40,WIND3,STAZIONE RADIO BASE,ATTIVO,ATTIVA,LTE800 - LTE1800 - LTE2100 - LTE2600 - UMTS900 - UMTS2100
BO066,LIZZANO IN BELVEDERE,VIA CALCINARA,LIZZANO IN BELVEDERE,037033,10.89426867820501,44.19965981944381,10.89426867820501 44.19965981944381,4326                            ,960,WIND3,STAZIONE RADIO BASE,ATTIVO,ATTIVA,GSM900 - LTE800 - LTE1800 - LTE2100 - LTE2600 - UMTS900 - UMTS2100
BO046,MEZZOLARA DI BUDRIO,VIA CAVALLE C/O CENTALE ENEL 28,BUDRIO,037008,11.55887467205509,44.59127015094974,11.55887467205509 44.59127015094974,4326                            ,"13,5",WIND3,STAZIONE RADIO BASE,ATTIVO,ATTIVA,GSM900 - LTE800 - LTE1800 - LTE2100 - LTE2600 - UMTS900 - UMTS2100
BO003,OZZANO,VIA DELLO SPORT,OZZANO DELL'EMILIA,037046,11.4841842690346,44.44538124208318,11.4841842690346 44.44538124208318,4326                            ,59,WIND3,STAZIONE RADIO BASE,NON ATTIVO,CONCLUSA,GSM900 - LTE800 - LTE1800 - LTE2100 - LTE2600 - UMTS900 - UMTS2100
BO161,UNIVERSITA' ,VIA CENTOTRECENTO 18,BOLOGNA,037006,11.35065738170582,44.49880701884975,11.35065738170582 44.49880701884975,4326                            ,48,WIND3,STAZIONE RADIO BASE,ATTIVO,ATTIVA,GSM900 - LTE1800 - LTE2100 - UMTS900 - UMTS2100
BO782,GAGGIO MONTANO,VIA ROMA 842,GAGGIO MONTANO,037027,10.94282031600921,44.20145211583058,10.94282031600921 44.20145211583058,4326                            ,592,WIND3,STAZIONE RADIO BASE,ATTIVO,ATTIVA,LTE800 - LTE1800 - LTE2100 - UMTS900 - UMTS2100
BO202,VAL IDICE,VIA CASTIGLIONE 4,MONTERENZIO,037041,11.39248907061621,44.26333500475887,11.39248907061621 44.26333500475887,4326                            ,456,WIND3,STAZIONE RADIO BASE,ATTIVO,ATTIVA,GSM900 - LTE800 - LTE1800 - LTE2100 - UMTS900 - UMTS2100
BO264,BAZZANO OVEST,VIA CADUTI DI SABBIUNO 61,VALSAMOGGIA,037061,11.07574150471265,44.50886945472385,11.07574150471265 44.50886945472385,4326                            ,77,WIND3,STAZIONE RADIO BASE,ATTIVO,ATTIVA,GSM900 - LTE800 - LTE1800 - LTE2100 - LTE2600 - UMTS900 - UMTS2100
FE024,PORTOMAGGIORE,VIA CARLO EPPI 6,PORTOMAGGIORE,038019,11.804119,44.695129,11.804119 44.695129,4326                            ,"2,8",WIND3,STAZIONE RADIO BASE,ATTIVO,ATTIVA,GSM900 - LTE800 - LTE1800 - LTE2100 - LTE2600 - UMTS900 - UMTS2100
FE057,MIRABELLO,VIA PROSPERI,MIRABELLO,038016,11.45676944,44.83031111,11.45676944 44.83031111,4326                            ,8,WIND3,STAZIONE RADIO BASE,ATTIVO,ATTIVA,GSM900 - LTE800 - LTE1800 - LTE2100 - LTE2600 - UMTS900 - UMTS2100
FE072U,SAN MARTINO,VIA CHIESA 228,FERRARA,038008,11.583768,44.780223,11.583768 44.780223,4326                            ,9,WIND3,STAZIONE RADIO BASE,ATTIVO,ATTIVA,GSM900 - LTE800 - LTE1800 - LTE2100 - LTE2600 - UMTS900 - UMTS2100
FE115,SAN BIAGIO,VIA RUVIOLE,ARGENTA,038001,11.861831,44.58881,11.861831 44.58881,4326                            ,1,WIND3,STAZIONE RADIO BASE,ATTIVO,ATTIVA,GSM900 - LTE800 - LTE1800 - LTE2100 - UMTS900 - UMTS2100
FE674,MIRABELLO,VIA ARGINE POSTALE,MIRABELLO,038016,11.441507,44.819731,11.441507 44.819731,4326                            ,11,WIND3,STAZIONE RADIO BASE,ATTIVO,ATTIVA,LTE800 - LTE1800 - LTE2100 - UMTS900 - UMTS2100
FE014,SAN GIORGIO,VIALE ALFONSO D'ESTE,FERRARA,038008,11.632314971811054,44.82720867506809,11.632314971811054 44.82720867506809,4326                            ,"2,2",WIND3,STAZIONE RADIO BASE,ATTIVO,ATTIVA,GSM900 - LTE800 - LTE1800 - LTE2100 - LTE2600 - UMTS900 - UMTS2100
FE147,COCCANILE CESTA,COCCANILE CESTA,COPPARO,038007,11.871942,44.919196,11.871942 44.919196,4326                            ,"1,4",WIND3,STAZIONE RADIO BASE,ATTIVO,ATTIVA,LTE800 - LTE1800 - LTE2100 - LTE2600 - UMTS900 - UMTS2100
RA324,MARINA ROMEA,VIALE DEI PIOPPI - MARINA ROMEA,RAVENNA,039014,12.2697888888889,44.5109805555556,12.2697888888889 44.5109805555556,4326                            ,1,WIND3,STAZIONE RADIO BASE,ATTIVO,ATTIVA,GSM900 - LTE800 - LTE1800 - LTE2100 - LTE2600 - UMTS900 - UMTS2100
RN029,RICCIONE SUD,"PIAZZALE S.MARTINO, 4 (C/O HOTEL SARTI)",RICCIONE,099013,12.6707661,43.9964692,12.6707661 43.9964692,4326                            ,"2,3",WIND3,STAZIONE RADIO BASE,NON ATTIVO,CONCLUSA,GSM900 - LTE800 - LTE1800 - LTE2100 - LTE2600 - UMTS900 - UMTS2100
RN048,RICCIONE AUTOSTRADA,"VIA EMPOLI, 27 ANG. VIA DELL'INDUSTRIA",RICCIONE,099013,12.6387459,43.9911395,12.6387459 43.9911395,4326                            ,"13,1",WIND3,STAZIONE RADIO BASE,ATTIVO,ATTIVA,GSM900 - LTE800 - LTE1800 - LTE2100 - LTE2600 - UMTS900 - UMTS2100
RN023,S. GIOVANNI IN MARIGNANO,VIA DELLE RIMEMBRANZE C/O CIMITERO COMUNALE,SAN GIOVANNI IN MARIGNANO,099017,12.709567,43.9346378,12.709567 43.9346378,4326                            ,40,WIND3,STAZIONE RADIO BASE,ATTIVO,ATTIVA,GSM900 - LTE800 - LTE1800 - LTE2100 - LTE2600 - UMTS900 - UMTS2100
RN058,S. ARCANGELO DI ROMAGNA BIS,VIA DELLA RESISTENZA C/O CAMPO SPORTIVO,SANTARCANGELO DI ROMAGNA,099018,12.4492854,44.057176,12.4492854 44.057176,4326                            ,"41,5",WIND3,STAZIONE RADIO BASE,ATTIVO,ATTIVA,GSM900 - LTE800 - LTE1800 - LTE2100 - LTE2600 - UMTS900 - UMTS2100
RN030,ENEL VIA FORMIA,VIA CORTEMAGGIORE C/O PARCHEGGIO COMUNALE,RICCIONE,099013,12.6518726,44.0027707,12.6518726 44.0027707,4326                            ,3,WIND3,STAZIONE RADIO BASE,ATTIVO,ATTIVA,GSM900 - LTE800 - LTE1800 - LTE2100 - LTE2600 - UMTS900 - UMTS2100
XB072,FIERA BIS,"VIA EMILIA, 155",RIMINI,099014,12.5250846,44.0700892,12.5250846 44.0700892,4326                            ,12,WIND3,STAZIONE RADIO BASE,ATTIVO,ATTIVA,GSM900 - LTE800 - LTE1800 - LTE2100 - LTE2600 - UMTS900 - UMTS2100
RN094,RIMINI VILLAGGIO AZZURRO,"VIA TOSCA, 10",RIMINI,099014,12.5444931,44.0535173,12.5444931 44.0535173,4326                            ,"10,9",WIND3,STAZIONE RADIO BASE,NON ATTIVO,CONCLUSA,GSM900 - LTE800 - LTE1800 - LTE2100 - LTE2600 - UMTS900 - UMTS2100
RN070,PARCO FELLINI,"VIALE CAPPELLINI, 1 (C/O HOTEL BIANCAMANO)",RIMINI,099014,12.5756711,44.0729991,12.5756711 44.0729991,4326                            ,3,WIND3,STAZIONE RADIO BASE,ATTIVO,ATTIVA,GSM900 - LTE800 - LTE1800 - LTE2100 - LTE2600 - UMTS900 - UMTS2100
RN123,RICCIONE MICHELANGELO,"VIA MICHELANGELO BUONARROTI, 20",RICCIONE,099013,12.6728529,43.9916104,12.6728529 43.9916104,4326                            ,"3,5",WIND3,STAZIONE RADIO BASE,ATTIVO,ATTIVA,GSM900 - LTE800 - LTE1800 - LTE2100 - LTE2600 - UMTS900 - UMTS2100
RN119,RIMINI LIPPARINI,"VIA LIPPARINI, 33",RIMINI,099014,12.5865394,44.0533477,12.5865394 44.0533477,4326                            ,3,WIND3,STAZIONE RADIO BASE,ATTIVO,ATTIVA,GSM900 - LTE800 - LTE1800 - LTE2100 - LTE2600 - UMTS900 - UMTS2100
FC47021_003,SANTA SOFIA,VIA STRADA PROVINCIALE 26 CARNAIO FRAZIONE VETRETA DI SOPRA LOCALITA' MONTE GIGNOLI,BAGNO DI ROMAGNA,040001,11.912427,43.936216,11.912427 43.936216,4326                            ,464,ILIAD,STAZIONE RADIO BASE,NON ATTIVO,CONCLUSA,5G700 - LTE1800 - LTE2100 - LTE2600 - UMTS900 - UMTS2100
PC29122_010,MONTALE,STRADA MUSSINA SNC  C/O CABINA ENEL,PIACENZA,033032,9.75087,45.016957,9.75087 45.016957,4326                            ,62,ILIAD,STAZIONE RADIO BASE,ATTIVO,ATTIVA,5G700 - LTE1800 - LTE2100 - LTE2600 - UMTS900
PR43036_008,FIDENZA VILLAGE A1,LOC. TOCCALMATTO - SP CANNETOLO,FIDENZA,034014,10.1018751,44.8863664,10.1018751 44.8863664,4326                            ,"58,8",ILIAD,STAZIONE RADIO BASE,NON ATTIVO,ATTIVABILE,5G700 - LTE1800 - LTE2100 - LTE2600 - UMTS900
BO1478-B,BAGNAROLA ABBAZIA,VIA RAMELLO,BUDRIO,037008,11.4843888888889,44.5580833333333,11.4843888888889 44.5580833333333,4326                            ,25,VODAFONE,STAZIONE RADIO BASE,NON ATTIVO,ATTIVABILE,GSM900 - LTE800 - LTE1800 - LTE2100 - LTE2600 - UMTS900 - UMTS2100
PR55,SANTA MARIA DEL TARO,LOC. SANTA MARIA DEL TARO,TORNOLO,034040,9.4819093,44.4376102,9.4819093 44.4376102,4326                            ,862,TIM,STAZIONE RADIO BASE,NON ATTIVO,CONCLUSA,GSM900 - LTE800 - LTE1800 - UMTS900 - UMTS2100
FE44121_001,VIA GARIBALDI,"VIA GARIBALDI 93, C/O HOTEL CARLTON",FERRARA,038008,11.615605,44.837375,11.615605 44.837375,4326                            ,8,ILIAD,STAZIONE RADIO BASE,ATTIVO,ATTIVA,5G700 - LTE1800 - LTE2100 - LTE2600 - UMTS900
PR1D,PR MINOZZI,"LARGO CACCIARI OMBRETTA, SNC  C/O ROTONDA STRADALE",PARMA,034027,10.3597105,44.8072188,10.3597105 44.8072188,4326                            ,47,TIM,STAZIONE RADIO BASE,NON ATTIVO,ATTIVABILE,5G3700 - GSM900 - LTE800 - LTE1800 - LTE2100 - UMTS900 - UMTS2100
BO005,SAN FELICE,VIA RIVA RENO 58,BOLOGNA,037006,11.33432280429813,44.49871537282034,11.33432280429813 44.49871537282034,4326                            ,"51,6",WIND3,STAZIONE RADIO BASE,ATTIVO,ATTIVA,5G3700 - GSM900 - LTE800 - LTE1800 - LTE2100 - LTE2600 - LTE2600-TDD - UMTS900 - UMTS2100
PC29121_008,VIA LUIGI EINAUDI,STRADA VEGGIOLETTA S N A,PIACENZA,033032,9.655059,45.049536,9.655059 45.049536,4326                            ,60,ILIAD,STAZIONE RADIO BASE,NON ATTIVO,IN CORSO,5G700 - LTE1800 - LTE2100 - LTE2600 - UMTS900
BO004,PIAZZA TRENTO E TRIESTE,VIA MAZZINI 33,BOLOGNA,037006,11.36050393679205,44.48845225571532,11.36050393679205 44.48845225571532,4326                            ,"57,2",WIND3,STAZIONE RADIO BASE,NON ATTIVO,ATTIVABILE,5G3700 - GSM900 - LTE800 - LTE1800 - LTE2100 - LTE2600 - LTE2600-TDD - UMTS900 - UMTS2100
RE42124_003,DUE TORRI A1,"VIA DEI GONZAGA, 46",REGGIO NELL'EMILIA,035033,10.6180699761,44.7223380515,10.6180699761 44.7223380515,4326                            ,45,ILIAD,STAZIONE RADIO BASE,ATTIVO,ATTIVA,
BO248,BO CHIESANUOVA,VIA TOSCANA 2,BOLOGNA,037006,11.37013196196407,44.47206137199245,11.37013196196407 44.47206137199245,4326                            ,"80,6",WIND3,STAZIONE RADIO BASE,ATTIVO,ATTIVA,5G3700 - GSM900 - LTE800 - LTE1800 - LTE2100 - LTE2600 - LTE2600-TDD - UMTS900 - UMTS2100
RA48100_001,CASTIGLIONE DI RAVENNA,"VIA BAGNOLO SALARA, 61 - CASTIGLIONE DI RAVENNA",RAVENNA,039014,12.2471805555556,44.2546861111111,12.2471805555556 44.2546861111111,4326                            ,"10,8",ILIAD,STAZIONE RADIO BASE,ATTIVO,ATTIVA,LTE1800 - LTE2600 - UMTS900 - UMTS2100
RA48015_006,SAVIO CERVIA,VIA RAGAZZENA - SAVIO DI CERVIA,CERVIA,039007,12.2960055555556,44.30315,12.2960055555556 44.30315,4326                            ,"1,5",ILIAD,STAZIONE RADIO BASE,ATTIVO,ATTIVA,5G700 - LTE1800 - LTE2600 - UMTS900 - UMTS2100
RA48123_008,PORTO DI RAVENNA SCALO,"VIA BAIONA, 174 - BASSETTE",RAVENNA,039014,12.2300805555556,44.4528305555556,12.2300805555556 44.4528305555556,4326                            ,0,ILIAD,STAZIONE RADIO BASE,ATTIVO,ATTIVA,LTE1800 - LTE2600 - UMTS900 - UMTS2100
RA160,LUGO NORD,"VIA CANALE INFERIORE SINISTRO, 4",LUGO,039012,11.9058753,44.4327576,11.9058753 44.4327576,4326                            ,11,WIND3,STAZIONE RADIO BASE,ATTIVO,ATTIVA,GSM900 - LTE800 - LTE1800 - LTE2100 - LTE2600 - UMTS900 - UMTS2100
MDBD,PIANDELAGOTTI,VIA CASA GIGLI,FRASSINORO,036016,10.52222222,44.22666666,10.52222222 44.22666666,4326                            ,1175,TIM,STAZIONE RADIO BASE,NON ATTIVO,IN CORSO,GSM900 - LTE800 - LTE1800 - LTE2100 - UMTS900
BO017,INDIPENDENZA,VIA INDIPENDENZA 47,BOLOGNA,037006,11.34439684271952,44.49958006328004,11.34439684271952 44.49958006328004,4326                            ,"50,9",WIND3,STAZIONE RADIO BASE,NON ATTIVO,CONCLUSA,5G3700 - GSM1800 - LTE1800 - LTE2100 - LTE2600 - LTE2600-TDD - UMTS2100
BO40138_006,ROVERI SCALO SAN DONATO,VIA DEL FONDITORE 3/5,BOLOGNA,037006,11.40385666368928,44.50343737174396,11.40385666368928 44.50343737174396,4326                            ,"46,3",ILIAD,STAZIONE RADIO BASE,NON ATTIVO,ATTIVABILE,5G3700 - LTE1800 - LTE2100 - LTE2600 - UMTS900
RN021,TORRE PEDRERA,"VIA LAGO DI GARDA, 10",RIMINI,099014,12.5168771,44.102568,12.5168771 44.102568,4326                            ,2,WIND3,STAZIONE RADIO BASE,NON ATTIVO,CONCLUSA,GSM900 - LTE800 - LTE1800 - LTE2100 - LTE2600 - UMTS900 - UMTS2100
MO2808-A,CAVEZZO OVEST,VIA SANTA LIBERATA 2,CAVEZZO,036009,11.031467,44.843524,11.031467 44.843524,4326                            ,"21,2",VODAFONE,STAZIONE RADIO BASE,ATTIVO,ATTIVA,GSM900 - LTE800 - LTE1800 - LTE2100 - UMTS900 - UMTS2100
BO40050_009,FUNO,VIA FRATELLI ROSSELLI 59,ARGELATO,037002,11.36521584541816,44.58539470284347,11.36521584541816 44.58539470284347,4326                            ,28,ILIAD,STAZIONE RADIO BASE,NON ATTIVO,IN CORSO,LTE1800 - LTE2100 - LTE2600 - UMTS900
FE44011_004,CONSANDOLO,"VIA NAZIONALE, 89 C/O AREA CIMITERIALE",ARGENTA,038001,11.768590935918866,44.65759668093514,11.768590935918866 44.65759668093514,4326                            ,2,ILIAD,STAZIONE RADIO BASE,NON ATTIVO,IN CORSO,5G700 - LTE1800 - LTE2100 - LTE2600 - UMTS900
FE44028_001,POGGIO RENATICO,VIA DELL'ARTIGIANATO,POGGIO RENATICO,038018,11.498524662964575,44.77164641067076,11.498524662964575 44.77164641067076,4326                            ,"8,5",ILIAD,STAZIONE RADIO BASE,NON ATTIVO,IN CORSO,5G700 - LTE1800 - LTE2100 - LTE2600 - UMTS900
MO41013_002,,"VIA NOCE, PIUMAZZO",CASTELFRANCO EMILIA,036006,11.074101,44.548087,11.074101 44.548087,4326                            ,"55,5",ILIAD,STAZIONE RADIO BASE,NON ATTIVO,IN CORSO,LTE1800 - LTE2100 - LTE2600 - UMTS900
MO41123_004,,VIA PIAZZA,MODENA,036023,10.9058512957,44.6541599066,10.9058512957 44.6541599066,4326                            ,36,ILIAD,STAZIONE RADIO BASE,NON ATTIVO,IN CORSO,5G700 - LTE1800 - LTE2100 - LTE2600 - UMTS900
MO41123_008,,A1 AREA DI SERVIZIO SECCHIA OVEST,MODENA,036023,10.854437,44.663276,10.854437 44.663276,4326                            ,"43,5",ILIAD,STAZIONE RADIO BASE,NON ATTIVO,IN CORSO,LTE1800 - LTE2100 - LTE2600 - UMTS900
RA48012_001,BAGNACAVALLO A14,"VIA BONCELLINO, 121",BAGNACAVALLO,039002,11.9807922,44.407869,11.9807922 44.407869,4326                            ,"9,2",ILIAD,STAZIONE RADIO BASE,NON ATTIVO,IN CORSO,5G700 - LTE1800 - LTE2100 - LTE2600 - UMTS900
RN47838_006,RICCIONE NORD,VIA MANFRONI C/O PARCHEGGIO COMUNALE,RICCIONE,099013,12.6308334,44.0227745,12.6308334 44.0227745,4326                            ,"1,8",ILIAD,STAZIONE RADIO BASE,NON ATTIVO,IN CORSO,LTE1800 - LTE2100 - LTE2600 - UMTS900
MO41058_001,VIGNOLA,VIA BARELLA C/O CIMITERO COMUNALE,VIGNOLA,036046,11.007414,44.487718,11.007414 44.487718,4326                            ,115,ILIAD,STAZIONE RADIO BASE,NON ATTIVO,IN CORSO,5G700 - LTE1800 - LTE2100 - LTE2600 - UMTS900
MO41126_001,VILLAGGIO GIARDINO,VIA CANNIZZARO - TORRE ACQUA CANNIZZARO,MODENA,036023,10.89242,44.639295,10.89242 44.639295,4326                            ,38,ILIAD,STAZIONE RADIO BASE,NON ATTIVO,CONCLUSA,5G3700 - LTE1800 - LTE2100 - LTE2600 - UMTS900
MO41100_001,VILLANOVA LESIGNANA TAV,VIA QUATTRO VILLE 45 VILLANOVA,MODENA,036023,10.898939,44.691142,10.898939 44.691142,4326                            ,"34,2",ILIAD,STAZIONE RADIO BASE,NON ATTIVO,ATTIVABILE,5G3700 - LTE1800 - LTE2600 - UMTS900 - UMTS2100
BO6027-A,HUB ANTONIANO,VIA GUINIZZELLI 3,BOLOGNA,037006,11.36060078155209,44.48646385284276,11.36060078155209 44.48646385284276,4326                            ,"58,9",VODAFONE,STAZIONE RADIO BASE,NON ATTIVO,CONCLUSA,GSM900 - LTE800 - LTE1800 - LTE2100 - LTE2600 - UMTS900 - UMTS2100
PR43022_003,MONTECCHIO EMILIA CENTRO,"VIA CONTI, 1 1",MONTECCHIO EMILIA,035027,10.4450025973,44.6987348747,10.4450025973 44.6987348747,4326                            ,97,ILIAD,STAZIONE RADIO BASE,ATTIVO,ATTIVA,5G700 - LTE1800 - LTE2100 - LTE2600 - UMTS900
MO090,VIA VACILIO NORD,"C/O CAMPO ALLENAMENTO POLISPORTIVA ""GINO NASI""",MODENA,036023,10.935035,44.624307,10.935035 44.624307,4326                            ,35,WIND3,STAZIONE RADIO BASE,ATTIVO,ATTIVA,5G3700 - GSM900 - LTE800 - LTE1800 - LTE2100 - LTE2600 - LTE2600-TDD - UMTS900 - UMTS2100
BO036,PORTA SAN DONATO,VIALE FILOPANTI 2,BOLOGNA,037006,11.3570045974629766666666666666666666667,44.4978533229318633333333333333333333333,11.3570045974629766666666666666666666667 44.4978533229318633333333333333333333333,4326                            ,"49,8",WIND3,STAZIONE RADIO BASE,NON ATTIVO,ATTIVABILE,5G3700 - GSM900 - LTE800 - LTE1800 - LTE2100 - LTE2600 - LTE2600-TDD - UMTS900 - UMTS2100
PR2224-A,PARMA FIERA,"VIA F.LLI RIZZI, 67/A C/O ENTE FIERA",PARMA,034027,10.2910244,44.8485747,10.2910244 44.8485747,4326                            ,"41,6",VODAFONE,STAZIONE RADIO BASE,NON ATTIVO,CONCLUSA,GSM900 - LTE800 - LTE1800 - LTE2100 - LTE2600 - UMTS2100
2 BO 2603 B,BO CAPRAMOZZA,VIA CAPRAMOZZA 4,BOLOGNA,037006,11.3364098065277716666666666666666666667,44.4892451219790116666666666666666666667,11.3364098065277716666666666666666666667 44.4892451219790116666666666666666666667,4326                            ,"68,3",VODAFONE,STAZIONE RADIO BASE,NON ATTIVO,ATTIVABILE,GSM900 - LTE800 - LTE1800 - LTE2100 - LTE2600 - UMTS900
BO40057_001,GRANAROLO ZI,VIA DELL'ARTIGIANATO 34,GRANAROLO DELL'EMILIA,037030,11.43951343736291,44.54815963865548,11.43951343736291 44.54815963865548,4326                            ,"29,5",ILIAD,STAZIONE RADIO BASE,ATTIVO,ATTIVA,5G700 - LTE1800 - LTE2100 - LTE2600 - UMTS900
PC04,FIORENZUOLA,"VIA S. BERNARDO DA CHIARAVALLE, C/O CENTRALE TELECOM",FIORENZUOLA D'ARDA,033021,9.91405922,44.92353333,9.91405922 44.92353333,4326                            ,"82,5",TIM,STAZIONE RADIO BASE,ATTIVO,ATTIVA,GSM900 - LTE800 - LTE1800 - LTE2100 - LTE2600 - UMTS900 - UMTS2100
509,CASTROCARO TERME MONTICINO,VIA BIONDINA,CASTROCARO TERME E TERRA DEL SOLE,040005,11.9469416666667,44.1858056,11.9469416666667 44.1858056,4326                            ,150,GO INTERNET,STAZIONE RADIO BASE,NON ATTIVO,IN CORSO,LTE3500
FLB0,RN VISERBA 3,"VIALE DON MINZONI, 2",RIMINI,099014,12.539073,44.087142,12.539073 44.087142,4326                            ,"0,9",TIM,STAZIONE RADIO BASE,NON ATTIVO,CONCLUSA,LTE800 - LTE1800 - LTE2100 - UMTS2100
MO3C,MO LA BOTTEGA VF,VIA COLLEGAROLA,MODENA,036023,10.9485327527,44.6128484134,10.9485327527 44.6128484134,4326                            ,"38,5",TIM,STAZIONE RADIO BASE,NON ATTIVO,CONCLUSA,GSM900 - LTE800 - LTE1800 - LTE2100 - UMTS900 - UMTS2100
RE45,RE GARDENIA,"VIA EMILIA SANTO STEFANO, 50",REGGIO NELL'EMILIA,035033,10.6243975,44.7004572,10.6243975 44.7004572,4326                            ,,TIM,STAZIONE RADIO BASE,NON ATTIVO,IN CORSO,LTE1800 - LTE2100 - UMTS2100
BO151,IMOLA A14,C/O SVINCOLO AUTOSTRADALE A14,IMOLA,037032,11.74331633177927,44.38046009307251,11.74331633177927 44.38046009307251,4326                            ,31,WIND3,STAZIONE RADIO BASE,NON ATTIVO,ATTIVABILE,GSM900 - LTE800 - LTE1800 - LTE2100 - LTE2600 - UMTS900 - UMTS2100
FE3E,FE DIAMANTINA,VIA ERIDANO C/O ROTONDA STRADALE,FERRARA,038008,11.58144722,44.85808333,11.58144722 44.85808333,4326                            ,5,TIM,STAZIONE RADIO BASE,NON ATTIVO,IN CORSO,GSM900 - LTE800 - LTE1800 - LTE2100 - UMTS2100
FE44121_009,STADIO PAOLO MAZZA,VIA ORTIGARA ANGOLO VIA CASSOLI,FERRARA,038008,11.607583,44.840944,11.607583 44.840944,4326                            ,9,ILIAD,STAZIONE RADIO BASE,NON ATTIVO,CONCLUSA,5G700 - LTE1800 - LTE2100 - LTE2600 - UMTS900
RE42121_002,PIAZZA DUCA D'AOSTA,"VIA MAZZINI, 6",REGGIO NELL'EMILIA,035033,10.627178,44.700928,10.627178 44.700928,4326                            ,54,ILIAD,STAZIONE RADIO BASE,NON ATTIVO,ATTIVABILE,5G3700 - LTE1800 - LTE2100 - LTE2600 - UMTS900
2 BO 4510 A,BO CASTELDEBOLE,AREA SFALCI  - ASSE ATTREZZATO,CASALECCHIO DI RENO,037011,11.2743610913372,44.49035404431056,11.2743610913372 44.49035404431056,4326                            ,54,VODAFONE,STAZIONE RADIO BASE,NON ATTIVO,CONCLUSA,5G3700 - GSM900 - LTE800 - LTE1800 - LTE2100 - UMTS900
MO09,MO GIARDINI,"VIA G. AGNINI,366",MODENA,036023,10.9053020257,44.6354716507,10.9053020257 44.6354716507,4326                            ,37,TIM,STAZIONE RADIO BASE,NON ATTIVO,CONCLUSA,GSM900 - LTE800 - LTE1800 - LTE2100 - LTE2600 - UMTS900 - UMTS2100
MO45078-A,CA ROSA,VIA JACOPO DA PORTO SUD,MODENA,036023,10.8575693959,44.6109895494,10.8575693959 44.6109895494,4326                            ,54,VODAFONE,STAZIONE RADIO BASE,NON ATTIVO,IN CORSO,GSM900 - LTE800 - LTE1800 - LTE2100 - LTE2600 - UMTS2100
BO1509B,BARCA,ROTONDA MALAGUTI,BOLOGNA,037006,11.28763237545025,44.49209154989381,11.28763237545025 44.49209154989381,4326                            ,"48,2",VODAFONE,STAZIONE RADIO BASE,NON ATTIVO,ATTIVABILE,5G3700 - GSM900 - LTE800 - LTE1500 - LTE1800 - LTE2100 - LTE2600 - UMTS900 - UMTS2100
MD14,BAGGIOVARA,VIA JACOPO DA PORTO SUD,MODENA,036023,10.8575693959,44.6109895494,10.8575693959 44.6109895494,4326                            ,54,TIM,STAZIONE RADIO BASE,NON ATTIVO,ATTIVABILE,GSM900 - LTE800 - LTE1800 - LTE2100 - LTE2600 - UMTS2100
MO0125-B,DIAMANTE,VIA MINUTARA. 24,MODENA,036023,10.949021672,44.6413768913,10.949021672 44.6413768913,4326                            ,32,VODAFONE,STAZIONE RADIO BASE,NON ATTIVO,IN CORSO,5G3700 - GSM900 - LTE800 - LTE1800 - LTE2100 - LTE2600 - UMTS900
2-PR-1056,TANGENZIALE NORD,C/O IREN,PARMA,034027,10.310154,44.8273792,10.310154 44.8273792,4326                            ,47,VODAFONE,STAZIONE RADIO BASE,NON ATTIVO,IN CORSO,5G3700 - GSM900 - LTE800 - LTE1800 - LTE2100
PR161,GAIANO,"VIA MONTE FUSO, 15 LOCALITA' GAIANO",COLLECCHIO,034009,10.173472,44.727361,10.173472 44.727361,4326                            ,114,WIND3,STAZIONE RADIO BASE,ATTIVO,ATTIVA,LTE800 - LTE1800 - LTE2100 - LTE2600 - UMTS900 - UMTS2100
MO41037_008,SAN MARTINO SPINO,"VIA NATTA, 3",MIRANDOLA,036022,11.232088,44.939798,11.232088 44.939798,4326                            ,10,ILIAD,STAZIONE RADIO BASE,ATTIVO,ATTIVA,5G700 - LTE1800 - LTE2100 - LTE2600 - UMTS900
FE5969-B,PUTINATI,VIA PUTINATI C/O PARCHEGGIO COMUNALE,FERRARA,038008,11.619872,44.825088,11.619872 44.825088,4326                            ,"8,1",VODAFONE,STAZIONE RADIO BASE,NON ATTIVO,CONCLUSA,5G3700 - GSM900 - LTE800 - LTE1800 - LTE2100
FOF9,RONCADELLO EX FO31,VIA ALESSANDRO PASQUALINI,FORLI' ,040012,12.046342,44.268497,12.046342 44.268497,4326                            ,21,TIM,STAZIONE RADIO BASE,NON ATTIVO,CONCLUSA,GSM900 - LTE800 - LTE1800 - LTE2100 - UMTS2100
